id,name,address,city,state,zip,telephone,type,status,population,county,country,lat,long,naics_code,naics_desc,source,sourcedate,val_date,website,alt_name,owner,beds,trauma,helipad,overall_type
3829406,Healthsouth Rehabilitation Hospital Of Charleston,9181 Medcom St,North Charleston,SC,29406,(843) 820-7762,Rehabilitation,open,46,Charleston,USA,32.975799319,-80.069978431,622310,"Rehabilitation Hospitals (Except Alcoholism, Drug Addiction)",http://www.scdhec.gov/Health/FHPF/HealthFacilityRegulationsLicensing/HealthcareFacilityLicensing/LicensedFacilitiesbyType/,2018-08-10T00:00:00.000Z,2013-10-03T00:00:00.000Z,http://www.healthsouthcharleston.com,NA,Proprietary,46,NA,N,hospital
11029303,Spartanburg Rehabilitation Institute,160 Harold Fleming Ct,Spartanburg,SC,29303,(864) 594-9600,Rehabilitation,open,40,Spartanburg,USA,34.9896574310001,-81.942460234,622310,"Rehabilitation Hospitals (Except Alcoholism, Drug Addiction)",http://www.scdhec.gov/Health/FHPF/HealthFacilityRegulationsLicensing/HealthcareFacilityLicensing/LicensedFacilitiesbyType/,2018-08-10T00:00:00.000Z,2016-10-27T00:00:00.000Z,http://sri.ernesthealth.com/,NA,Proprietary,40,NA,N,hospital
2929505,Women's Center Of Carolinas Hospital System,1590 Freedom Blvd,Florence,SC,29505,(843) 674-2500,Women,open,20,Florence,USA,34.1614199300001,-79.7531218139999,622310,Maternity Hospitals,http://www.scdhec.gov/Health/FHPF/HealthFacilityRegulationsLicensing/HealthcareFacilityLicensing/LicensedFacilitiesbyType/,2018-08-10T00:00:00.000Z,2014-03-12T00:00:00.000Z,http://www.carolinashospital.com,NA,Proprietary,20,NA,Y,hospital
1298816,Lake Chelan Community Hospital,503 Highland Ave E,Chelan,WA,98816,(509) 682-2531,Critical Access,open,25,Chelan,USA,47.844970178,-120.00961263,622110,General Medical And Surgical Hospitals,https://fortress.wa.gov/doh/facilitysearch/Default.aspx,2018-08-10T00:00:00.000Z,2014-02-10T00:00:00.000Z,lakechelancommunityhospital.com,okanogan-douglas district hospital,Government - District/Authority,25,LEVEL IV,N,hospital
324450,Carilion Stonewall Jackson Hospital,1 Health Circle,Lexington,VA,24450,(540) 458-3300,Critical Access,open,25,Lexington,USA,37.7785170700001,-79.440954961,622110,General Medical And Surgical Hospitals,http://www.vhi.org,2018-08-09T00:00:00.000Z,2014-02-10T00:00:00.000Z,http://www.carilionclinic.org/Carilion/csjh,NA,Non-Profit,25,NA,Y,hospital
2129672,Ghs Oconee Memorial Hospital,298 Memorial Dr,Seneca,SC,29672,(864) 885-7191,General Acute Care,open,169,Oconee,USA,34.6955306900001,-82.98721979,622110,General Medical And Surgical Hospitals,http://www.scdhec.gov/Health/FHPF/HealthFacilityRegulationsLicensing/HealthcareFacilityLicensing/LicensedFacilitiesbyType/,2018-08-10T00:00:00.000Z,2014-02-10T00:00:00.000Z,https://www.ghs.org/locations/oconee-medical-campus/,NA,Proprietary,169,NA,N,hospital
5599166,Ferry County Memorial Hospital,36 North Klondike Road,Republic,WA,99166,(509) 775-3333,Critical Access,open,25,Ferry,USA,48.6530413740001,-118.731400912,622110,General Medical And Surgical Hospitals,https://fortress.wa.gov/doh/facilitysearch/Default.aspx,2018-08-10T00:00:00.000Z,2014-02-10T00:00:00.000Z,www.fcphd.org,north valley hospital,Government - District/Authority,25,LEVEL V,Y,hospital
9598663,Southwest Washington Medical Center - Memorial Campus,3400 Main Street,Vancouver,WA,98663,(360) 696-5232,General Acute Care,closed,NA,Clark,USA,45.6461262220001,-122.669888669,622110,General Medical And Surgical Hospitals,http://www.doh.wa.gov/DataandStatisticalReports/HealthcareinWashington/HospitalandPatientData/HospitalFinancialData.aspx,2012-08-02T00:00:00.000Z,2014-02-10T00:00:00.000Z,www.swmedctr.com,NA,Non-Profit,NA,NA,N,hospital
16643078,Mercy Memorial Hospital,904 Scioto Street,Urbana,OH,43078,(937) 653-5231,Critical Access,open,8,Champaign,USA,40.1085219560001,-83.7299200799999,622110,General Medical And Surgical Hospitals,http://publicapps.odh.ohio.gov/EID/Provider_Search.aspx,2018-08-10T00:00:00.000Z,2014-03-12T00:00:00.000Z,http://www.health-partners.org,NA,Non-Profit,8,NA,Y,hospital
30576054,Cook Children's Northeast Hospital,6316 Precinct Line Road,Hurst,TX,76054,(817) 605-2500,Children,open,3,Tarrant,USA,32.8632298260001,-97.1854156799999,622110,"Children's Hospitals, General",http://www.dshs.texas.gov/facilities/find-a-licensee.aspx,2018-08-11T00:00:00.000Z,2014-02-04T00:00:00.000Z,http://www.cookchildrens.org/AboutUs/Companies/Pages/NortheastHospital.aspx,NA,Proprietary,3,NA,N,hospital
58675219,Texas Scottish Rite Hospital For Children,2222 Welborn Street,Dallas,TX,75219,(214) 559-5000,Children,open,100,Dallas,USA,32.8019769000001,-96.81431331,622110,"Children's Hospitals, General",http://www.dshs.texas.gov/facilities/find-a-licensee.aspx,2018-08-11T00:00:00.000Z,2014-03-12T00:00:00.000Z,http://www.tsrhc.org,NA,Non-Profit,100,NA,Y,hospital
73175024,Childrens Medical Center Plano,7601 Preston Road,Plano,TX,75024,(469) 303-7000,Children,open,72,Collin,USA,33.078530492,-96.800444967,622110,"Children's Hospitals, General",http://www.dshs.texas.gov/facilities/find-a-licensee.aspx,2018-08-11T00:00:00.000Z,2016-11-30T00:00:00.000Z,https://www.childrens.com/location-landing/locations-and-directions/childrens-health-plano,NA,Proprietary,72,LEVEL IV,Y,hospital
1898433,Va Puget Sound Health Care System - American Lake Division,9900 Veterans Drive Sw,Tacoma,WA,98433,(253) 582-8440,Military,open,203,Pierce,USA,47.133300558,-122.578496042,622110,General Medical And Surgical Hospitals,https://fortress.wa.gov/doh/facilitysearch/Default.aspx,2018-08-10T00:00:00.000Z,2014-02-10T00:00:00.000Z,http://www.pugetsound.va.gov/,NA,Government - Federal,203,NA,N,hospital
4098411,Puget Sound Behavioral Health,215 S 36th St,Tacoma,WA,98411,(253) 798-4500,Psychiatric,closed,130,Pierce,USA,47.226914879,-122.435121543,622210,"Hospitals, Psychiatric (Except Convalescent)",http://www.doh.wa.gov/DataandStatisticalReports/HealthcareinWashington/HospitalandPatientData/HospitalFinancialData.aspx,2012-08-02T00:00:00.000Z,2014-02-10T00:00:00.000Z,http://psbmed.com/,NA,Proprietary,130,NA,N,hospital
6098494,Western State Hospital,9601 Steilacoom Boulevard Sw,Lakewood,WA,98498,(253) 582-8900,Psychiatric,open,659,Pierce,USA,47.178319985,-122.565734981,622210,Psychiatric And Substance Abuse Hospitals,https://fortress.wa.gov/doh/facilitysearch/Default.aspx,2018-08-10T00:00:00.000Z,2014-02-10T00:00:00.000Z,https://www.dshs.wa.gov/bha/division-state-hospitals/western-state-hospital,NA,Government - State,659,NA,N,hospital
12323666,Sentara Careplex Hospital,3000 Coliseum Drive,Hampton,VA,23666,(757) 736-1000,General Acute Care,open,200,Hampton,USA,37.057292225,-76.39033356,622110,General Medical And Surgical Hospitals,http://www.vhi.org,2018-08-09T00:00:00.000Z,2014-02-10T00:00:00.000Z,http://www.sentara.com/HospitalsFacilities/Hospitals/CarePlex/Pages/careplex.aspx,NA,Non-Profit,200,NA,Y,hospital
224445,Bath County Community Hospital,106 Park Lane,Hot Springs,VA,24445,(540) 839-7000,Critical Access,open,25,Bath,USA,37.9929071990001,-79.832030613,622110,General Medical And Surgical Hospitals,http://www.vhi.org,2018-08-09T00:00:00.000Z,2014-02-10T00:00:00.000Z,www.bathhospital.org,NA,Non-Profit,25,NA,Y,hospital
122939,Augusta Medical Center,78 Medical Center Drive,Fishersville,VA,22939,(540) 332-4000,General Acute Care,open,255,Augusta,USA,38.0945244050001,-78.986837327,622110,General Medical And Surgical Hospitals,http://www.vhi.org,2018-08-09T00:00:00.000Z,2014-02-10T00:00:00.000Z,www.augustahealth.com,NA,Non-Profit,255,NA,Y,hospital
199022,Eastern State Hospital,850 Maple St,Medical Lake,WA,99022,(509) 299-4351,Psychiatric,open,195,Spokane,USA,47.5731456330001,-117.693950677,622210,Psychiatric And Substance Abuse Hospitals,https://fortress.wa.gov/doh/facilitysearch/Default.aspx,2018-08-10T00:00:00.000Z,2014-02-10T00:00:00.000Z,https://www.dshs.wa.gov/bha/division-state-hospitals/eastern-state-hospital-overview,NA,Government - State,195,NA,N,hospital
16144512,St Elizabeth Boardman Health Center,8401 Market Street,Boardman,OH,44512,(330) 729-2929,General Acute Care,open,246,Mahoning,USA,40.994884976,-80.6600284099999,622110,General Medical And Surgical Hospitals,http://publicapps.odh.ohio.gov/EID/Provider_Search.aspx,2018-08-10T00:00:00.000Z,2014-02-10T00:00:00.000Z,http://www.mercy.com/Youngstown/ho_sebhc.aspx,NA,Non-Profit,246,NA,Y,hospital
1999207,Providence Holy Family Hospital,5633 N. Lidgerwood St,Spokane,WA,99207,(509) 482-0111,General Acute Care,open,272,Spokane,USA,47.709754423,-117.406725032,622110,General Medical And Surgical Hospitals,https://fortress.wa.gov/doh/facilitysearch/Default.aspx,2018-08-10T00:00:00.000Z,2014-02-10T00:00:00.000Z,http://www.providence.org,shriners hospital for crippled children-spokane unit,Non-Profit,272,LEVEL III,Y,hospital
3699204,Shriners Hospital For Children,911 W. 5th Avenue,Spokane,WA,99204,(509) 455-7844,Children,open,30,Spokane,USA,47.6509024120001,-117.425671156,622110,"Children's Hospitals, General",https://fortress.wa.gov/doh/facilitysearch/Default.aspx,2018-08-10T00:00:00.000Z,2014-02-10T00:00:00.000Z,http://www.shrinershospitalsforchildren.org/,deaconess medical center,Non-Profit,30,NA,Y,hospital
4199202,Daybreak Of Spokane,628 South Cowley,Spokane,WA,99202,(509) 624-3227,Rehabilitation,closed,34,Spokane,USA,47.650243061,-117.408561258,622210,"Hospitals, Addiction",http://www.doh.wa.gov/DataandStatisticalReports/HealthcareinWashington/HospitalandPatientData/HospitalFinancialData.aspx,2012-08-02T00:00:00.000Z,2014-02-10T00:00:00.000Z,https://daybreakyouthservices.org/,NA,Non-Profit,34,NA,N,hospital
4299205,Spokane Va Medical Center,4815 N. Assembly St.,Spokane,WA,99205,(509) 434-7000,Military,open,132,Spokane,USA,47.7024729190001,-117.477695957,622110,General Medical And Surgical Hospitals,https://fortress.wa.gov/doh/facilitysearch/Default.aspx,2018-08-10T00:00:00.000Z,2014-02-10T00:00:00.000Z,http://www.spokane.va.gov/,NA,Government - Federal,132,NA,N,hospital
6943420,"Physician's Choice Hospital - Fremont, Llc",2390 Enterprise Drive,Fremont,OH,43420,(419) 461-1057,General Acute Care,closed,NA,Sandusky,USA,41.3797405550001,-83.1158806559999,622110,General Medical And Surgical Hospitals,http://publicapps.odh.ohio.gov/EID/Provider_Search.aspx,2012-07-23T00:00:00.000Z,2014-02-10T00:00:00.000Z,http://www.physicianschoicehospital.com,NA,Non-Profit,NA,NA,Y,hospital
10137650,Unicoi County Memorial Hospital,100 Greenway Circle,Erwin,TN,37650,(423) 743-3141,General Acute Care,open,83,Unicoi,USA,36.1336207190001,-82.413051583,622110,General Medical And Surgical Hospitals,https://apps.health.tn.gov/FacilityListings,2018-08-10T00:00:00.000Z,2014-02-10T00:00:00.000Z,http://www.ucmhnet.org,NA,Non-Profit,83,NA,Y,hospital
9198502,Capital Medical Center,3900 Capital Mall Dr Sw,Olympia,WA,98502,(360) 754-5858,General Acute Care,open,110,Thurston,USA,47.0427309150001,-122.9517868,622110,General Medical And Surgical Hospitals,https://fortress.wa.gov/doh/facilitysearch/Default.aspx,2018-08-10T00:00:00.000Z,2014-02-10T00:00:00.000Z,http://www.capitalmedical.com,providence saint peter hospital,Proprietary,110,NA,Y,hospital
7499328,Dayton General Hospital,1012 S 3rd St,Dayton,WA,99328,(509) 382-2531,Critical Access,open,25,Columbia,USA,46.3121047760001,-117.970253847,622110,General Medical And Surgical Hospitals,https://fortress.wa.gov/doh/facilitysearch/Default.aspx,2018-08-10T00:00:00.000Z,2014-02-10T00:00:00.000Z,http://www.cchd-wa.org,saint mary medical center,Government - Local,25,LEVEL V,Y,hospital
6499133,Coulee Medical Center,411 Fortuyn Rd,Grand Coulee,WA,99133,(509) 633-1753,Critical Access,open,25,Grant,USA,47.9424495220001,-119.007592907,622110,General Medical And Surgical Hospitals,https://fortress.wa.gov/doh/facilitysearch/Default.aspx,2018-08-10T00:00:00.000Z,2014-02-10T00:00:00.000Z,http://www.cmccares.org,lincoln hospital,Government - District/Authority,25,LEVEL IV,Y,hospital
3299301,Lourdes Medical Center,520 4th Ave N,Pasco,WA,99301,(509) 547-7704,Critical Access,open,106,Franklin,USA,46.2350255950001,-119.09538616,622110,General Medical And Surgical Hospitals,https://fortress.wa.gov/doh/facilitysearch/Default.aspx,2018-08-10T00:00:00.000Z,2014-02-10T00:00:00.000Z,www.lourdesmed.org,kennewick general hospital,Non-Profit,106,LEVEL IV,Y,hospital
6398278,Naval Hospital Oak Harbor,3475 N. Saratoga St.,Oak Harbor,WA,98278,(360) 257-9500,Military,open,25,Island,USA,48.3364589930001,-122.681212829,622110,General Medical And Surgical Hospitals,https://fortress.wa.gov/doh/facilitysearch/Default.aspx,2018-08-10T00:00:00.000Z,2014-02-10T00:00:00.000Z,http://www.med.navy.mil/sites/nhoh/Pages/default.aspx,NA,Government - Federal,25,NA,Y,hospital
8998239,Whidbey General Hospital,101 Main Street North,Coupeville,WA,98239,(360) 678-5151,Critical Access,open,51,Island,USA,48.2138932940001,-122.684326801,622110,General Medical And Surgical Hospitals,https://fortress.wa.gov/doh/facilitysearch/Default.aspx,2018-08-10T00:00:00.000Z,2014-02-10T00:00:00.000Z,www.whidbeygen.org,whidbeyhealth medical center,Government - District/Authority,51,LEVEL III,Y,hospital
3898114,Swedish Medical Center - First Hill Campus,747 Broadway,Seattle,WA,98114,(206) 386-6000,General Acute Care,open,748,King,USA,47.6086612670001,-122.321621089,622110,General Medical And Surgical Hospitals,https://fortress.wa.gov/doh/facilitysearch/Default.aspx,2018-08-10T00:00:00.000Z,2014-02-10T00:00:00.000Z,http://www.swedish.org/,virginia mason medical center,Non-Profit,748,NA,N,hospital
4898195,University Of Washington Medical Center,1959 Pacific St Ne,Seattle,WA,98195,(206) 548-6486,General Acute Care,open,450,King,USA,47.6508581350001,-122.309260631,622110,General Medical And Surgical Hospitals,https://fortress.wa.gov/doh/facilitysearch/Default.aspx,2018-08-10T00:00:00.000Z,2014-02-10T00:00:00.000Z,www.uwmedicine.org,childrens hospital & regional medical center,Government - State,450,NA,N,hospital
5098034,Lakeside Milam Recovery Center,10322 Ne 132nd St.,Kirkland,WA,98034,(425) 823-3116,Rehabilitation,open,25,King,USA,47.719387236,-122.202139637,622310,"Rehabilitation Hospitals (Except Alcoholism, Drug Addiction)",https://fortress.wa.gov/doh/facilitysearch/Default.aspx,2018-08-10T00:00:00.000Z,2014-02-10T00:00:00.000Z,www.lakesidemilam.com,NA,Proprietary,25,NA,N,hospital
9098101,Virginia Mason Medical Center,925 Seneca Street,Seattle,WA,98101,(206) 624-1144,General Acute Care,open,336,King,USA,47.6097766840001,-122.327866797,622110,General Medical And Surgical Hospitals,https://fortress.wa.gov/doh/facilitysearch/Default.aspx,2018-08-10T00:00:00.000Z,2014-02-10T00:00:00.000Z,www.virginiamason.org,swedish medical center - first hill,Non-Profit,336,NA,N,hospital
9498146,Shick Shadel Hosptial,12101 Ambaum Blvd. S.w,Seattle,WA,98146,(206) 244-8100,Psychiatric,open,63,King,USA,47.49433229,-122.350698997,622210,Psychiatric And Substance Abuse Hospitals,https://fortress.wa.gov/doh/facilitysearch/Default.aspx,2018-08-10T00:00:00.000Z,2014-02-10T00:00:00.000Z,www.schickshadel.com,NA,Proprietary,63,NA,N,hospital
10498034,Bhc Fairfax Hospital,10200 Ne 132nd St,Kirkland,WA,98034,(425) 821-2000,Psychiatric,open,95,King,USA,47.7191221530001,-122.204273414,622210,Psychiatric And Substance Abuse Hospitals,https://fortress.wa.gov/doh/facilitysearch/Default.aspx,2018-08-10T00:00:00.000Z,2014-02-10T00:00:00.000Z,www.fairfaxhospital.com,NA,Proprietary,95,NA,N,hospital
11098112,Group Health Cooperative/Central Hospital,201 16th Avenue East,Seattle,WA,98112,(206) 326-3000,General Acute Care,open,306,King,USA,47.6199818800001,-122.31205809,622110,General Medical And Surgical Hospitals,https://fortress.wa.gov/doh/facilitysearch/Default.aspx,2018-08-10T00:00:00.000Z,2014-02-10T00:00:00.000Z,www.ghc.org/,swedish medical center - first hill,Proprietary,306,NA,N,hospital
12198052,Swedish Medical Center - Redmond Ed,18100 Union Hill Road,Redmond,WA,98052,(425) 498-2020,General Acute Care,open,NA,King,USA,47.6763133010001,-122.099126908,622110,General Medical And Surgical Hospitals,https://fortress.wa.gov/doh/facilitysearch/Default.aspx,2018-08-10T00:00:00.000Z,2014-02-10T00:00:00.000Z,http://www.swedish.org/,NA,Non-Profit,NA,NA,N,hospital
6938372,Hardin Medical Center,935 Wayne Rd.,Savannah,TN,38372,(731) 926-8121,General Acute Care,open,58,Hardin,USA,35.2279311230001,-88.2303470849999,622110,General Medical And Surgical Hospitals,https://apps.health.tn.gov/FacilityListings,2018-08-10T00:00:00.000Z,2013-09-10T00:00:00.000Z,http://www.hardinmedicalcenter.org,NA,Government - Local,58,NA,Y,hospital
4744223,Summa Western Reserve Hospital,1900 23rd Street,Cuyahoga Falls,OH,44223,(330) 971-7000,General Acute Care,open,272,Summit,USA,41.1329909660001,-81.511095847000007,622110,General Medical And Surgical Hospitals,http://publicapps.odh.ohio.gov/EID/Provider_Search.aspx,2018-08-10T00:00:00.000Z,2014-01-31T00:00:00.000Z,http://www.westernreservehospital.org,NA,Proprietary,272,NA,N,hospital
6298383,Harrison Medical Center - Silverdale,1800 Nw Myhre Rd,Silverdale,WA,98383,(360) 337-8800,General Acute Care,open,44,Kitsap,USA,47.655548347,-122.675405855,622110,General Medical And Surgical Hospitals,https://fortress.wa.gov/doh/facilitysearch/Default.aspx,2018-08-10T00:00:00.000Z,2014-02-10T00:00:00.000Z,www.harrisonmedical.org,harrison memorial hospital,Proprietary,44,NA,N,hospital
8798310,Harrison Medical Center,2520 Cherry Ave,Bremerton,WA,98310,(360) 377-3911,General Acute Care,open,297,Kitsap,USA,47.5831532990001,-122.62504593,622110,General Medical And Surgical Hospitals,https://fortress.wa.gov/doh/facilitysearch/Default.aspx,2018-08-10T00:00:00.000Z,2014-02-10T00:00:00.000Z,www.harrisonmedical.org,harrison memorial hospital - silverdale,Proprietary,297,LEVEL III,Y,hospital
15844621,Trinity Hospital Twin City,819 North First Street,Dennison,OH,44621,(740) 922-2800,Critical Access,open,25,Tuscarawas,USA,40.4016215940001,-81.336686132,622110,General Medical And Surgical Hospitals,http://publicapps.odh.ohio.gov/EID/Provider_Search.aspx,2018-08-10T00:00:00.000Z,2014-03-12T00:00:00.000Z,http://www.trinitytwincity.org,NA,Non-Profit,25,NA,Y,hospital
1798672,Skyline Hospital,211 Skyline Dr,White Salmon,WA,98672,(509) 493-1101,Critical Access,open,25,Klickitat,USA,45.7223792440001,-121.470530676,622110,General Medical And Surgical Hospitals,https://fortress.wa.gov/doh/facilitysearch/Default.aspx,2018-08-10T00:00:00.000Z,2014-02-10T00:00:00.000Z,www.skylinehospital.com,klickitat valley hospital,Government - District/Authority,25,LEVEL IV,Y,hospital
3198620,Klickitat Valley Health,310 South Roosevelt,Goldendale,WA,98620,(509) 773-4022,Critical Access,open,17,Klickitat,USA,45.8201803320001,-120.811106011,622110,General Medical And Surgical Hospitals,https://fortress.wa.gov/doh/facilitysearch/Default.aspx,2018-08-10T00:00:00.000Z,2014-02-10T00:00:00.000Z,www.kvhealth.net/,toppenish community hospital,Government - District/Authority,17,LEVEL IV,Y,hospital
283544,Clearwater Valley Hospital And Clinics,301 Cedar,Orofino,ID,83544,(208) 476-4555,General Acute Care,open,23,Clearwater,USA,46.486929155,-116.259769495,622110,General Medical And Surgical Hospitals,http://healthandwelfare.idaho.gov/Portals/0/Medical/LicensingCertification/AlphaHospital.pdf,2018-08-09T00:00:00.000Z,2014-02-10T00:00:00.000Z,http://www.smh-cvhc.org,NA,Non-Profit,23,NA,Y,hospital
583544,Idaho State Hospital North,300 Hospital Drive,Orofino,ID,83544,(208) 476-4511,Psychiatric,open,60,Clearwater,USA,46.4917567310001,-116.260389527,622110,General Medical And Surgical Hospitals,http://healthandwelfare.idaho.gov/Portals/0/Medical/LicensingCertification/AlphaHospital.pdf,2018-08-09T00:00:00.000Z,2014-02-10T00:00:00.000Z,http://healthandwelfare.idaho.gov,NA,Government - State,60,NA,N,hospital
2483843,Gritman Medical Center,700 South Main Street,Moscow,ID,83843,(208) 882-4511,General Acute Care,open,25,Latah,USA,46.7282264580001,-117.000547346,622110,General Medical And Surgical Hospitals,http://healthandwelfare.idaho.gov/Portals/0/Medical/LicensingCertification/AlphaHospital.pdf,2018-08-09T00:00:00.000Z,2014-03-12T00:00:00.000Z,http://www.gritman.org,NA,Non-Profit,25,NA,Y,hospital
1597015,Kaiser Sunnyside Medical Center,10180 Se Sunnyside Road,Clackamas,OR,97015,NOT AVAILABLE,General Acute Care,open,269,Clackamas,USA,45.431320359,-122.560466192,622110,General Medical And Surgical Hospitals,https://public.health.oregon.gov/ProviderPartnerResources/HealthcareProvidersFacilities/HealthcareHealthCareRegulationQualityImprovement/Pages/forms.aspx#Hospital,2018-08-10T00:00:00.000Z,2014-02-10T00:00:00.000Z,https://healthy.kaiserpermanente.org,NA,Non-Profit,269,NA,N,hospital
3597222,Providence Milwaukie Hospital,10150 Se 32nd Avenue,Milwaukie,OR,97222,NOT AVAILABLE,General Acute Care,open,63,Clackamas,USA,45.449366378,-122.627562906,622110,General Medical And Surgical Hospitals,https://public.health.oregon.gov/ProviderPartnerResources/HealthcareProvidersFacilities/HealthcareHealthCareRegulationQualityImprovement/Pages/forms.aspx#Hospital,2018-08-10T00:00:00.000Z,2014-02-10T00:00:00.000Z,http://oregon.providence.org/patients/facilities/providence-milwaukie-hospital/Pages/default.aspx,NA,Non-Profit,63,NA,N,hospital
797103,Columbia Memorial Hospital,2111 Exchange Street,Astoria,OR,97103,NOT AVAILABLE,General Acute Care,open,242,Clatsop,USA,46.188002055,-123.818592264,622110,General Medical And Surgical Hospitals,https://public.health.oregon.gov/ProviderPartnerResources/HealthcareProvidersFacilities/HealthcareHealthCareRegulationQualityImprovement/Pages/forms.aspx#Hospital,2018-08-10T00:00:00.000Z,2014-03-12T00:00:00.000Z,www.columbiamemorial.com,NA,Non-Profit,242,LEVEL IV,Y,hospital
3897138,Providence Seaside Hospital,725 S Wahanna Road,Seaside,OR,97138,NOT AVAILABLE,General Acute Care,open,47,Clatsop,USA,45.989015017,-123.91206867,622110,General Medical And Surgical Hospitals,https://public.health.oregon.gov/ProviderPartnerResources/HealthcareProvidersFacilities/HealthcareHealthCareRegulationQualityImprovement/Pages/forms.aspx#Hospital,2018-08-10T00:00:00.000Z,2014-02-10T00:00:00.000Z,http://www.providence.org,NA,Non-Profit,47,NA,Y,hospital
3483837,Shoshone Medical Center,25 Jacob's Gulch Road,Kellogg,ID,83837,(208) 784-1221,General Acute Care,open,25,Shoshone,USA,47.546398267,-116.130613096,622110,General Medical And Surgical Hospitals,http://healthandwelfare.idaho.gov/Portals/0/Medical/LicensingCertification/AlphaHospital.pdf,2018-08-09T00:00:00.000Z,2013-11-12T00:00:00.000Z,http://www.shoshonehealth.com,NA,Government - District/Authority,25,NA,Y,hospital
2114203,Buffalo General Medical Center,100 High St,Buffalo,NY,14203,(716) 859-5600,General Acute Care,open,501,Erie,USA,42.9008684130001,-78.8662097609999,622110,General Medical And Surgical Hospitals,https://profiles.health.ny.gov/hospital/county_or_region/,2018-08-20T00:00:00.000Z,2014-03-12T00:00:00.000Z,http://www.kaleidahealth.org/bgmc/,kaleida health adult hospital dba buffalo general hospital,Non-Profit,501,NA,Y,hospital
1283861,Benewah Community Hospital,229 South Seventh Street,St. Maries,ID,83861,(208) 245-5551,General Acute Care,open,19,Benewah,USA,47.3146595220001,-116.567579221,622110,General Medical And Surgical Hospitals,http://healthandwelfare.idaho.gov/Portals/0/Medical/LicensingCertification/AlphaHospital.pdf,2018-08-09T00:00:00.000Z,2014-03-12T00:00:00.000Z,http://www.bchmed.org,NA,Government - Local,19,NA,Y,hospital
697225,Cedar Hills Hospital,Sw Eastridge Street,Portland,OR,97225,NOT AVAILABLE,Psychiatric,open,78,Washington,USA,45.5058697160001,-122.783081866,622110,General Medical And Surgical Hospitals,https://public.health.oregon.gov/ProviderPartnerResources/HealthcareProvidersFacilities/HealthcareHealthCareRegulationQualityImprovement/Pages/forms.aspx#Hospital,2018-08-10T00:00:00.000Z,2014-02-10T00:00:00.000Z,www.cedarhillshospital.com/,NA,Proprietary,78,NA,N,hospital
2597015,Mid-Columbia Medical Center,1700 E 19th Street,The Dalles,OR,97015,NOT AVAILABLE,General Acute Care,open,49,Wasco,USA,45.5872715880001,-121.16451957,622110,General Medical And Surgical Hospitals,https://public.health.oregon.gov/ProviderPartnerResources/HealthcareProvidersFacilities/HealthcareHealthCareRegulationQualityImprovement/Pages/forms.aspx#Hospital,2018-08-10T00:00:00.000Z,2014-02-10T00:00:00.000Z,www.mcmc.net,NA,Non-Profit,49,LEVEL III,Y,hospital
6697828,Wallowa Memorial Hospital,601 Medical Parkway,Enterprise,OR,97828,NOT AVAILABLE,Critical Access,open,57,Wallowa,USA,45.432365256,-117.284461316,622110,General Medical And Surgical Hospitals,https://public.health.oregon.gov/ProviderPartnerResources/HealthcareProvidersFacilities/HealthcareHealthCareRegulationQualityImprovement/Pages/forms.aspx#Hospital,2018-08-10T00:00:00.000Z,2013-11-11T00:00:00.000Z,www.wchcd.org,NA,Government - District/Authority,57,LEVEL IV,Y,hospital
197216,Adventist Medical Center,10123 Se Market Street,Portland,OR,97216,NOT AVAILABLE,General Acute Care,open,217,Multnomah,USA,45.5127103470001,-122.558434241,622110,General Medical And Surgical Hospitals,https://public.health.oregon.gov/ProviderPartnerResources/HealthcareProvidersFacilities/HealthcareHealthCareRegulationQualityImprovement/Pages/forms.aspx#Hospital,2018-08-10T00:00:00.000Z,2014-03-12T00:00:00.000Z,www.adventisthealthnw.com,NA,Non-Profit,217,NA,Y,hospital
1797227,Legacy Emanuel Medical Center,2801 N Gantenbein Avenue,Portland,OR,97227,NOT AVAILABLE,General Acute Care,open,407,Multnomah,USA,45.543285881,-122.67022181,622110,General Medical And Surgical Hospitals,https://public.health.oregon.gov/ProviderPartnerResources/HealthcareProvidersFacilities/HealthcareHealthCareRegulationQualityImprovement/Pages/forms.aspx#Hospital,2018-08-10T00:00:00.000Z,2014-03-12T00:00:00.000Z,www.legacyhealth.org,NA,Non-Profit,407,LEVEL I,Y,hospital
2097030,Legacy Mount Hood Medical Center,24800 Se Stark Street,Gresham,OR,97030,NOT AVAILABLE,General Acute Care,open,111,Multnomah,USA,45.5167841310001,-122.406989129,622110,General Medical And Surgical Hospitals,https://public.health.oregon.gov/ProviderPartnerResources/HealthcareProvidersFacilities/HealthcareHealthCareRegulationQualityImprovement/Pages/forms.aspx#Hospital,2018-08-10T00:00:00.000Z,2014-03-12T00:00:00.000Z,www.legacyhealth.org,NA,Non-Profit,111,NA,Y,hospital
2197210,Legacy Transplant Services,"1015 Nw 22nd Avenue, W121",Portland,OR,97210,NOT AVAILABLE,Special,open,NA,Multnomah,USA,45.5301828710001,-122.697034437,622110,General Medical And Surgical Hospitals,https://public.health.oregon.gov/ProviderPartnerResources/HealthcareProvidersFacilities/HealthcareHealthCareRegulationQualityImprovement/Pages/forms.aspx#Hospital,2018-08-10T00:00:00.000Z,2014-02-10T00:00:00.000Z,www.legacyhealth.org,NA,Non-Profit,NA,NA,N,hospital
2797223,Ohsu Hospital And Clinics,3181 Sw Sam Jackson Park Road,Portland,OR,97223,NOT AVAILABLE,General Acute Care,open,522,Multnomah,USA,45.4989463060001,-122.685971161,622110,General Medical And Surgical Hospitals,https://public.health.oregon.gov/ProviderPartnerResources/HealthcareProvidersFacilities/HealthcareHealthCareRegulationQualityImprovement/Pages/forms.aspx#Hospital,2018-08-10T00:00:00.000Z,2014-03-12T00:00:00.000Z,http://www.ohsu.edu,NA,Government - District/Authority,522,LEVEL I,Y,hospital
6197141,Tillamook County General Hospital,1000 Third Street,Tillamook,OR,97141,NOT AVAILABLE,General Acute Care,open,25,Tillamook,USA,45.4566108970001,-123.854331459,622110,General Medical And Surgical Hospitals,https://public.health.oregon.gov/ProviderPartnerResources/HealthcareProvidersFacilities/HealthcareHealthCareRegulationQualityImprovement/Pages/forms.aspx#Hospital,2018-08-10T00:00:00.000Z,2014-03-12T00:00:00.000Z,http://www.tcgh.com,NA,Non-Profit,25,LEVEL IV,Y,hospital
1297838,Good Shepherd Medical Center,610 Nw 11th Street,Hermiston,OR,97838,NOT AVAILABLE,General Acute Care,open,425,Umatilla,USA,45.847118987,-119.308512487,622110,General Medical And Surgical Hospitals,https://public.health.oregon.gov/ProviderPartnerResources/HealthcareProvidersFacilities/HealthcareHealthCareRegulationQualityImprovement/Pages/forms.aspx#Hospital,2018-08-10T00:00:00.000Z,2014-03-12T00:00:00.000Z,http://www.gsmc.org/,NA,Not Available,425,LEVEL III,Y,hospital
1983530,Syringa Hospital & Clinics,607 West Main,Grangeville,ID,83530,(208) 983-1700,General Acute Care,open,16,Idaho,USA,45.927068358,-116.127216591,622110,General Medical And Surgical Hospitals,http://healthandwelfare.idaho.gov/Portals/0/Medical/LicensingCertification/AlphaHospital.pdf,2018-08-09T00:00:00.000Z,2013-11-12T00:00:00.000Z,http://www.syringahospital.org,NA,Government - District/Authority,16,NA,N,hospital
183864,Bonner General Hospital,520 North Third Avenue,Sandpoint,ID,83864,(208) 263-1441,General Acute Care,open,25,Bonner,USA,48.277595793,-116.549406783,622110,General Medical And Surgical Hospitals,http://healthandwelfare.idaho.gov/Portals/0/Medical/LicensingCertification/AlphaHospital.pdf,2018-08-09T00:00:00.000Z,2014-02-10T00:00:00.000Z,http://www.bonnergeneral.org/index.php,NA,Non-Profit,25,NA,Y,hospital
3697132,Providence Newberg Medical Center,1001 Providence Drive,Newberg,OR,97132,NOT AVAILABLE,General Acute Care,open,40,Yamhill,USA,45.3083492660001,-122.935917328,622110,General Medical And Surgical Hospitals,https://public.health.oregon.gov/ProviderPartnerResources/HealthcareProvidersFacilities/HealthcareHealthCareRegulationQualityImprovement/Pages/forms.aspx#Hospital,2018-08-10T00:00:00.000Z,2014-03-12T00:00:00.000Z,http://oregon.providence.org/patients/facilities/providence-newberg-medical-center/Pages/default.aspx,NA,Non-Profit,40,NA,Y,hospital
3197836,Pioneer Memorial Hospital,564 E Pioneer Drive,Heppner,OR,97836,NOT AVAILABLE,General Acute Care,open,21,Morrow,USA,45.3558994160001,-119.548659438,622110,General Medical And Surgical Hospitals,https://public.health.oregon.gov/ProviderPartnerResources/HealthcareProvidersFacilities/HealthcareHealthCareRegulationQualityImprovement/Pages/forms.aspx#Hospital,2018-08-10T00:00:00.000Z,2013-11-11T00:00:00.000Z,http://www.morrowcountyhealthdistrict.org,NA,Government - District/Authority,21,LEVEL IV,N,hospital
4997383,Santiam Hospital,1401 N 10th Avenue,Stayton,OR,97383,NOT AVAILABLE,General Acute Care,open,40,Marion,USA,44.8051102530001,-122.784762587,622110,General Medical And Surgical Hospitals,https://public.health.oregon.gov/ProviderPartnerResources/HealthcareProvidersFacilities/HealthcareHealthCareRegulationQualityImprovement/Pages/forms.aspx#Hospital,2018-08-10T00:00:00.000Z,2014-03-12T00:00:00.000Z,santiamhospital.org  santiamhospital.org,NA,Non-Profit,40,LEVEL IV,Y,hospital
3783638,St. Luke's Mccall,1000 State Street,Mccall,ID,83638,(208) 634-2221,General Acute Care,open,15,Valley,USA,44.909048129,-116.110139303,622110,General Medical And Surgical Hospitals,http://healthandwelfare.idaho.gov/Portals/0/Medical/LicensingCertification/AlphaHospital.pdf,2018-08-09T00:00:00.000Z,2014-03-12T00:00:00.000Z,http://www.mccallhosp.org,NA,Non-Profit,15,NA,N,hospital
4383611,Cascade Medical Center,402 Old State Highway 1330,Cascade,ID,83611,(208) 382-4242,General Acute Care,open,10,Valley,USA,44.5183698770001,-116.049379083,622110,General Medical And Surgical Hospitals,http://healthandwelfare.idaho.gov/Portals/0/Medical/LicensingCertification/AlphaHospital.pdf,2018-08-09T00:00:00.000Z,2014-03-12T00:00:00.000Z,http://www.cascademedicalcenter.net,NA,Government - District/Authority,10,NA,Y,hospital
3883467,Steele Memorial Medical Center,203 S. Daisy,Salmon,ID,83467,(208) 756-5600,Critical Access,open,18,Lemhi,USA,45.173289674,-113.891746974,622110,General Medical And Surgical Hospitals,http://healthandwelfare.idaho.gov/Portals/0/Medical/LicensingCertification/AlphaHospital.pdf,2018-08-09T00:00:00.000Z,2014-03-12T00:00:00.000Z,www.steelemh.com,NA,Government - Local,18,NA,Y,hospital
4797367,Samaritan North Lincoln Hospital,3043 Ne 28th Street,Lincoln City,OR,97367,NOT AVAILABLE,General Acute Care,open,25,Lincoln,USA,44.9860609360001,-123.995181086,622110,General Medical And Surgical Hospitals,https://public.health.oregon.gov/ProviderPartnerResources/HealthcareProvidersFacilities/HealthcareHealthCareRegulationQualityImprovement/Pages/forms.aspx#Hospital,2018-08-10T00:00:00.000Z,2014-03-12T00:00:00.000Z,www.samhealth.org,NA,Non-Profit,25,LEVEL IV,Y,hospital
4897365,Samaritan Pacific Communities Hospital,930 Sw Abbey Street,Newport,OR,97365,NOT AVAILABLE,Critical Access,open,25,Lincoln,USA,44.6293932,-124.059611456,622110,General Medical And Surgical Hospitals,https://public.health.oregon.gov/ProviderPartnerResources/HealthcareProvidersFacilities/HealthcareHealthCareRegulationQualityImprovement/Pages/forms.aspx#Hospital,2018-08-10T00:00:00.000Z,2014-03-12T00:00:00.000Z,www.samhealth.org,NA,Non-Profit,25,LEVEL IV,Y,hospital
2414220,Mercy Hospital,565 Abbott Rd,Buffalo,NY,14220,(716) 434-9111,General Acute Care,open,438,Erie,USA,42.8475014320001,-78.8119710349999,622110,General Medical And Surgical Hospitals,https://profiles.health.ny.gov/hospital/county_or_region/,2018-08-20T00:00:00.000Z,2014-03-12T00:00:00.000Z,http://www.chsbuffalo.org/Facilities/Hospitals/MHOB,NA,Non-Profit,438,NA,Y,hospital
2612455,Margaretville Memorial Hospital,42084 State Highway 28,Margaretville,NY,12455,(845) 586-2631,Critical Access,open,15,Delaware,USA,42.146653558,-74.6420692679999,622110,General Medical And Surgical Hospitals,https://profiles.health.ny.gov/hospital/county_or_region/,2018-08-20T00:00:00.000Z,2014-02-10T00:00:00.000Z,http://www.hahv.org/find-care/locations/margaretville-hospital/,NA,Non-Profit,15,NA,N,hospital
2714217,Kenmore Mercy Hospital,2950 Elmwood Ave,Buffalo,NY,14217,(716) 447-6100,General Acute Care,open,184,Erie,USA,42.9775954450001,-78.8801177719999,622110,General Medical And Surgical Hospitals,https://profiles.health.ny.gov/hospital/county_or_region/,2018-08-20T00:00:00.000Z,2014-02-10T00:00:00.000Z,http://www.chsbuffalo.org/Facilities/Hospitals/KMH,NA,Non-Profit,184,NA,N,hospital
3414263,Roswell Park Cancer Institute,666 Elm Str,Buffalo,NY,14263,(716) 845-2300,General Acute Care,open,123,Erie,USA,42.899205097,-78.8648869469999,622110,General Medical And Surgical Hospitals,https://profiles.health.ny.gov/hospital/county_or_region/,2018-08-20T00:00:00.000Z,2014-03-12T00:00:00.000Z,http://www.roswellpark.org,NA,Government - District/Authority,123,NA,Y,hospital
3712883,Moses Ludington Hospital,1019 Wicker St,Ticonderoga,NY,12883,(518) 585-2831,Critical Access,open,15,Essex,USA,43.849525134,-73.437023993,622110,General Medical And Surgical Hospitals,https://profiles.health.ny.gov/hospital/county_or_region/,2018-08-20T00:00:00.000Z,2014-02-10T00:00:00.000Z,www.interlakeshealth.com,NA,Non-Profit,15,NA,Y,hospital
3812983,Adirondack Medical Center,2233 State Route 86,Saranac Lake,NY,12983,(518) 891-4141,General Acute Care,open,97,Franklin,USA,44.3450410360001,-74.1431367609999,622110,General Medical And Surgical Hospitals,https://profiles.health.ny.gov/hospital/county_or_region/,2018-08-20T00:00:00.000Z,2014-02-10T00:00:00.000Z,http://www.adirondackhealth.org/locations/adirondack-medical-center-at-saranac-lake/,NA,Non-Profit,97,NA,Y,hospital
4413365,Little Falls Hospital,140 Burwell St,Little Falls,NY,13365,(315) 823-1000,Critical Access,open,25,Herkimer,USA,43.0442400370001,-74.8474931649999,622110,General Medical And Surgical Hospitals,https://profiles.health.ny.gov/hospital/county_or_region/,2018-08-20T00:00:00.000Z,2014-02-10T00:00:00.000Z,http://www.bassett.org/little-falls-hospital/,NA,Non-Profit,25,NA,N,hospital
4613607,River Hospital,4 Fuller St,Alexandria Bay,NY,13607,(315) 482-2511,Critical Access,open,15,Jefferson,USA,44.337708766,-75.9205080519999,622110,General Medical And Surgical Hospitals,https://profiles.health.ny.gov/hospital/county_or_region/,2018-08-20T00:00:00.000Z,2014-02-10T00:00:00.000Z,http://www.riverhospital.org,NA,Non-Profit,15,NA,N,hospital
4913346,Community Memorial Hospital,150 Broad St,Hamilton,NY,13346,(315) 824-1100,Critical Access,open,25,Madison,USA,42.813435086,-75.5434049639999,622110,General Medical And Surgical Hospitals,https://profiles.health.ny.gov/hospital/county_or_region/,2018-08-20T00:00:00.000Z,2014-02-10T00:00:00.000Z,http://www.communitymemorial.org,NA,Non-Profit,25,NA,Y,hospital
5014620,Highland Hospital,1000 South Ave,Rochester,NY,14620,(585) 473-2200,General Acute Care,open,261,Monroe,USA,43.1352912040001,-77.60599645,622110,General Medical And Surgical Hospitals,https://profiles.health.ny.gov/hospital/county_or_region/,2018-08-20T00:00:00.000Z,2013-12-30T00:00:00.000Z,https://www.urmc.rochester.edu/highland.aspx,NA,Government - District/Authority,261,NA,N,hospital
5213618,Carthage Area Hospital,1001 West St,Carthage,NY,13618,(315) 493-1000,Critical Access,open,35,Jefferson,USA,43.98725597,-75.594091308,622110,General Medical And Surgical Hospitals,https://profiles.health.ny.gov/hospital/county_or_region/,2018-08-20T00:00:00.000Z,2014-02-10T00:00:00.000Z,http://www.carthagehospital.com,NA,Non-Profit,35,NA,N,hospital
6111561,Long Beach Medical Center,455 E Bay Dr,Long Beach,NY,11561,(516) 897-1000,General Acute Care,closed,162,Nassau,USA,40.594546587,-73.652228489,622110,General Medical And Surgical Hospitals,https://profiles.health.ny.gov/hospital/county_or_region/,2018-08-20T00:00:00.000Z,2014-02-10T00:00:00.000Z,http://longbeachmedicalcenter.org/,NA,Non-Profit,162,NA,N,hospital
6311580,Long Island Jewish Valley Stream,900 Franklin Ave,Valley Stream,NY,11580,(516) 256-6000,General Acute Care,open,330,Nassau,USA,40.6811275040001,-73.686299199,622110,General Medical And Surgical Hospitals,https://profiles.health.ny.gov/hospital/county_or_region/,2018-08-20T00:00:00.000Z,2014-02-10T00:00:00.000Z,https://www.northwell.edu/find-care/locations/long-island-jewish-valley-stream,franklin hospital,Non-Profit,330,NA,N,hospital
6711714,St. Joseph Hospital,4295  Hempstead Turnpike,Bethpage,NY,11714,(516) 579-6000,General Acute Care,open,203,Nassau,USA,40.72677129,-73.4787181949999,622110,General Medical And Surgical Hospitals,https://profiles.health.ny.gov/hospital/county_or_region/,2018-08-20T00:00:00.000Z,2014-02-10T00:00:00.000Z,http://stjosephhospital.chsli.org/,new island hospital,Non-Profit,203,NA,N,hospital
6811530,Mercy Medical Center,1000 N Village Ave,Rockville Centre,NY,11530,(516) 705-2525,General Acute Care,open,375,Nassau,USA,40.6885130310001,-73.6316038099999,622110,General Medical And Surgical Hospitals,https://profiles.health.ny.gov/hospital/county_or_region/,2018-08-20T00:00:00.000Z,2014-02-10T00:00:00.000Z,http://www.mercymedicalcenter.chsli.org,NA,Non-Profit,375,NA,N,hospital
7411548,Saint Francis Hospital,100 Port Washington Blvd,Roslyn,NY,11548,(516) 562-6000,General Acute Care,open,364,Nassau,USA,40.804754732,-73.6705896829999,622110,General Medical And Surgical Hospitals,https://profiles.health.ny.gov/hospital/county_or_region/,2018-08-20T00:00:00.000Z,2014-02-10T00:00:00.000Z,http://www.stfrancisheartcenter.com/index.html,st. francis hospital of roslyn,Non-Profit,364,NA,N,hospital
7713440,Rome Memorial Hospital,1500 N James St,Rome,NY,13440,(315) 338-7000,General Acute Care,open,130,Oneida,USA,43.2291343300001,-75.4423549919999,622110,General Medical And Surgical Hospitals,https://profiles.health.ny.gov/hospital/county_or_region/,2018-08-20T00:00:00.000Z,2014-02-10T00:00:00.000Z,http://www.romehospital.org,NA,Non-Profit,130,NA,N,hospital
7813501,St. Elizabeth Medical Center,2209 Genesee St,Utica,NY,13501,(315) 801-8100,General Acute Care,open,201,Oneida,USA,43.082171433,-75.266112032,622110,General Medical And Surgical Hospitals,https://profiles.health.ny.gov/hospital/county_or_region/,2018-08-20T00:00:00.000Z,2014-03-12T00:00:00.000Z,http://www.stemc.org,NA,Non-Profit,201,LEVEL III,Y,hospital
8113215,Upstate University Hospital - Community Campus,4900 Broad Rd,Syracuse,NY,13215,(315) 492-5953,General Acute Care,open,326,Onondaga,USA,43.0080376670001,-76.167902182,622110,General Medical And Surgical Hospitals,https://profiles.health.ny.gov/hospital/county_or_region/,2018-08-20T00:00:00.000Z,2014-02-10T00:00:00.000Z,http://www.upstate.edu/,upstate university hospital at community general,Non-Profit,326,NA,N,hospital
8614456,Geneva General Hospital,196-198 North St,Geneva,NY,14456,(315) 787-4000,General Acute Care,open,132,Ontario,USA,42.876460481,-76.98776837,622110,General Medical And Surgical Hospitals,https://profiles.health.ny.gov/hospital/county_or_region/,2018-08-20T00:00:00.000Z,2014-02-10T00:00:00.000Z,http://www.flhealth.org,NA,Non-Profit,132,NA,N,hospital
8812518,St. Luke's Cornwall Hospital - Cornwall Campus,19 Laurel Ave,Cornwall,NY,12518,(845) 534-7711,General Acute Care,open,125,Orange,USA,41.435251362,-74.04232114,622110,General Medical And Surgical Hospitals,https://profiles.health.ny.gov/hospital/county_or_region/,2018-08-20T00:00:00.000Z,2014-02-10T00:00:00.000Z,http://www.stlukescornwallhospital.org,NA,Non-Profit,125,LEVEL III,Y,hospital
8914424,Ff Thompson Hospital,350 Parrish Street,Canandaigua,NY,14424,(585) 396-6000,General Acute Care,open,113,Ontario,USA,42.876014958,-77.2902443039999,622110,General Medical And Surgical Hospitals,https://profiles.health.ny.gov/hospital/county_or_region/,2018-08-20T00:00:00.000Z,2014-02-10T00:00:00.000Z,http://www.thompsonhealth.com,NA,Non-Profit,113,NA,Y,hospital
9010990,St Anthony Community Hospital,15 Maple Ave,Warwick,NY,10990,(845) 986-2276,General Acute Care,open,60,Orange,USA,41.2613629210001,-74.357462149,622110,General Medical And Surgical Hospitals,https://profiles.health.ny.gov/hospital/county_or_region/,2018-08-20T00:00:00.000Z,2014-02-10T00:00:00.000Z,http://www.stanthonycommunityhosp.org,NA,Non-Profit,60,NA,N,hospital
9112771,Bon Secours Community Hospital,160 E Main St,Port Jervis,NY,12771,(845) 856-5351,General Acute Care,open,122,Orange,USA,41.3676357000001,-74.681597186,622110,General Medical And Surgical Hospitals,https://profiles.health.ny.gov/hospital/county_or_region/,2018-08-20T00:00:00.000Z,2014-02-10T00:00:00.000Z,http://www.bonsecourscommunityhosp.org,NA,Non-Profit,122,NA,N,hospital
884741,Kane County Hospital,355 North Main Street,Kanab,UT,84741,(435) 644-5811,Critical Access,open,NA,Kane,USA,37.054457251,-112.529508987,622110,General Medical And Surgical Hospitals,https://opendata.utah.gov/Health/Utah-Hospital-Characteristics/ierb-h3t5/data,2018-08-11T00:00:00.000Z,2014-02-10T00:00:00.000Z,http://www.kanecountyhospital.net,NA,Government - District/Authority,NA,NA,Y,hospital
15098498,Child Study And Treatment Center,8805 Steilacoom Boulevard Sw,Lakewood,WA,98498,(253) 756-2504,Psychiatric,open,47,Pierce,USA,47.1809564280001,-122.564431036,622210,Psychiatric And Substance Abuse Hospitals,https://fortress.wa.gov/doh/facilitysearch/Default.aspx,2018-08-10T00:00:00.000Z,2017-03-21T00:00:00.000Z,https://www.dshs.wa.gov/bha/division-state-hospitals/child-study-and-treatment-center,NA,Government - State,47,NA,N,hospital
15798029,Swedish Medical Center - Issaquah Campus,751 Ne Blakely Dr,Issaquah,WA,98029,(425) 313-4000,General Acute Care,open,NA,King,USA,47.536148235,-122.021808946,622110,General Medical And Surgical Hospitals,https://fortress.wa.gov/doh/facilitysearch/Default.aspx,2018-08-10T00:00:00.000Z,2017-03-27T00:00:00.000Z,http://www.swedish.org/,NA,Non-Profit,NA,NA,N,hospital
737766,Tennova Healthcare - Lafollette Medical Center,923 East Central Avenue,Lafollette,TN,37766,(423) 907-1200,General Acute Care,open,66,Campbell,USA,36.3888710420001,-84.111469777,622110,General Medical And Surgical Hospitals,https://apps.health.tn.gov/FacilityListings,2018-08-10T00:00:00.000Z,2014-02-10T00:00:00.000Z,http://www.tennovaeast.com/locations/lafollette-medical-center,NA,Proprietary,66,NA,Y,hospital
15637091,Marshall Medical Center,1080 North Ellington Parkway,Lewisburg,TN,37091,(931) 359-6276,Critical Access,open,25,Marshall,USA,35.465047487,-86.785490155,622110,General Medical And Surgical Hospitals,https://apps.health.tn.gov/FacilityListings,2018-08-10T00:00:00.000Z,2013-09-11T00:00:00.000Z,http://www.mauryregional.com,NA,Government - Local,25,NA,N,hospital
2457382,Avera Weskota Memorial Medical Center,604 1st Street Northeast,Wessington Springs,SD,57382,(605) 539-1201,Critical Access,open,16,Jerauld,USA,44.0810863310001,-98.563742213,622110,General Medical And Surgical Hospitals,https://apps.sd.gov/ph04lassnet/rptPH04LicenseList.Aspx,2018-08-10T00:00:00.000Z,2014-02-10T00:00:00.000Z,http://www.averaweskota.org,NA,Non-Profit,16,TRH,Y,hospital
6557066,Saint Michaels Hospital,410 West 16th Avenue,Tyndall,SD,57066,(605) 589-2100,Critical Access,open,25,Bon Homme,USA,42.9915707800001,-97.867525101,622110,General Medical And Surgical Hospitals,https://apps.sd.gov/ph04lassnet/rptPH04LicenseList.Aspx,2018-08-10T00:00:00.000Z,2014-02-10T00:00:00.000Z,http://www.stmichaels-bhfp.org,NA,Non-Profit,25,TRH,Y,hospital
1987102,Lovelace Medical Center,601 Doctor Martin Luther King Junior Avenue Northeast,Albuquerque,NM,87102,(505) 727-8000,General Acute Care,open,263,Bernalillo,USA,35.086120302,-106.639690414,622110,General Medical And Surgical Hospitals,http://providersearch.health.state.nm.us/,2018-08-09T00:00:00.000Z,2013-11-14T00:00:00.000Z,http://www.lovelace.com/albuquerque-hospital/lovelace-medical-center,NA,Proprietary,263,NA,N,hospital
4557702,Rapid City Hospital,3200 Canyon Lake Drive,Rapid City,SD,57702,(605) 355-2200,Critical Access,open,9,Pennington,USA,44.0742025170001,-103.27168835,622110,General Medical And Surgical Hospitals,https://apps.sd.gov/ph04lassnet/rptPH04LicenseList.Aspx,2018-08-10T00:00:00.000Z,2018-05-08T00:00:00.000Z,https://www.ihs.gov/greatplains/healthcarefacilities/rapidcity/,NA,Government - Federal,9,NA,N,hospital
4684701,Sevier Valley Medical Center,1000 North Main Street,Richfield,UT,84701,(435) 893-4100,General Acute Care,open,27,Sevier,USA,38.782700649,-112.083582522,622110,General Medical And Surgical Hospitals,https://opendata.utah.gov/Health/Utah-Hospital-Characteristics/ierb-h3t5/data,2018-08-11T00:00:00.000Z,2014-02-10T00:00:00.000Z,http://www.intermountain.com,NA,Non-Profit,27,NA,Y,hospital
4784074,Mountain West Medical Center,2055 North Main Street,Tooele,UT,84074,(435) 843-3600,General Acute Care,open,31,Tooele,USA,40.566737226,-112.297260143,622110,General Medical And Surgical Hospitals,https://opendata.utah.gov/Health/Utah-Hospital-Characteristics/ierb-h3t5/data,2018-08-11T00:00:00.000Z,2013-12-06T00:00:00.000Z,http://www.mountainwestmc.com,NA,Proprietary,31,NA,Y,hospital
9710512,Putnam Hospital Center,670 Stoneleigh Ave,Carmel,NY,10512,(845) 279-5711,General Acute Care,open,164,Putnam,USA,41.382627122,-73.662975714,622110,General Medical And Surgical Hospitals,https://profiles.health.ny.gov/hospital/county_or_region/,2018-08-20T00:00:00.000Z,2014-02-10T00:00:00.000Z,http://www.health-quest.org/home_phc.cfm?id=10,NA,Non-Profit,164,NA,N,hospital
9812180,St Mary's Hospital,1300 Massachusetts Ave,Troy,NY,12180,(518) 268-5000,General Acute Care,open,196,Rensselaer,USA,42.7427205070001,-73.6764239669999,622110,General Medical And Surgical Hospitals,https://profiles.health.ny.gov/hospital/county_or_region/,2018-08-20T00:00:00.000Z,2014-02-10T00:00:00.000Z,http://www.setonhealth.org/st_marys/index.cfm,NA,Non-Profit,196,NA,N,hospital
3057013,Keystone Treatment Center,1010 East 2nd Street,Canton,SD,57013,(605) 987-2751,Psychiatric,open,NA,Lincoln,USA,43.3039856880001,-96.5799967839999,622210,"Hospitals, Addiction",https://apps.sd.gov/ph04lassnet/rptPH04LicenseList.Aspx,2018-08-10T00:00:00.000Z,2014-02-10T00:00:00.000Z,http://www.keystonetreatment.com/,NA,Non-Profit,NA,NA,N,hospital
3140831,Harlan Arh Hospital,81 Ball Park Road,Harlan,KY,40831,(606) 573-8100,General Acute Care,open,150,Harlan,USA,36.809455171,-83.3135983939999,622110,General Medical And Surgical Hospitals,https://chfs.ky.gov/agencies/os/oig/dhc/Documents/Directories/Hospital_Directory.pdf,2018-08-11T00:00:00.000Z,2014-03-12T00:00:00.000Z,http://www.arh.org/locations/harlan.aspx,NA,Non-Profit,150,LEVEL IV,Y,hospital
10310970,Summit Park Hospital & Nursing Care Center,50 Sanatorium Road,Pomona,NY,10970,(845) 364-2150,Long Term Care,closed,378,Rockland,USA,41.1590755660001,-74.03806184,622310,"Hospitals, Specialty (Except Psychiatric, Substance Abuse)",https://profiles.health.ny.gov/hospital/county_or_region/,2018-08-20T00:00:00.000Z,2014-02-10T00:00:00.000Z,http://rocklandgov.com/departments/hospitals/,NA,Government - Local,378,NA,N,hospital
3442701,Healthsouth Lakeview Rehabilitation Hospital Of Central Kentucky,134 Heartland Drive,Elizabethtown,KY,42701,(270) 769-3100,Rehabilitation,open,40,Hardin,USA,37.714635564,-85.8750721709999,622110,General Medical And Surgical Hospitals,https://chfs.ky.gov/agencies/os/oig/dhc/Documents/Directories/Hospital_Directory.pdf,2018-08-11T00:00:00.000Z,2013-12-17T00:00:00.000Z,http://www.healthsouthlakeview.com,NA,Proprietary,40,NA,N,hospital
10413669,Claxton-Hepburn Medical Center,214 King St,Ogdensburg,NY,13669,(315) 393-3600,General Acute Care,open,130,St. Lawrence,USA,44.691590653,-75.4998877799999,622110,General Medical And Surgical Hospitals,https://profiles.health.ny.gov/hospital/county_or_region/,2018-08-20T00:00:00.000Z,2014-02-10T00:00:00.000Z,http://www.claxtonhepburn.org,NA,Non-Profit,130,NA,N,hospital
10513642,Edward John Noble Hospital Of Gouverneur,77 W Barney St,Gouverneur,NY,13642,(315) 287-1000,Critical Access,open,25,St. Lawrence,USA,44.337525348,-75.474848725,622110,General Medical And Surgical Hospitals,https://profiles.health.ny.gov/hospital/county_or_region/,2018-08-20T00:00:00.000Z,2014-02-10T00:00:00.000Z,http://www.ejnoble.com,governeur hospital,Non-Profit,25,NA,N,hospital
6057105,Select Specialty Hospital,800 East 21st Street,Sioux Falls,SD,57105,(605) 322-3300,Long Term Care,closed,24,Minnehaha,USA,43.5342336480001,-96.714323905,622310,"Hospitals, Specialty (Except Psychiatric, Substance Abuse)",http://arcgis.sd.gov/ArcGIS/rest/services/SD_All/MapServer/38,2012-11-24T00:00:00.000Z,2014-03-12T00:00:00.000Z,http://southdakota.selectspecialtyhospitals.com/,NA,Proprietary,24,NA,Y,hospital
10813690,Clifton-Fine Hospital,1014 Oswegatchie Trail,Star Lake,NY,13690,(315) 848-3351,Critical Access,open,20,St. Lawrence,USA,44.1624070400001,-75.0563040219999,622110,General Medical And Surgical Hospitals,https://profiles.health.ny.gov/hospital/county_or_region/,2018-08-20T00:00:00.000Z,2014-02-10T00:00:00.000Z,http://www.cliftonfinehospital.org,NA,Non-Profit,20,NA,N,hospital
11112308,Sunnyview Rehabilitation Hospital,1270 Belmont Ave,Schenectady,NY,12308,(518) 382-4500,Rehabilitation,open,115,Schenectady,USA,42.820171418,-73.9163125009999,622310,"Rehabilitation Hospitals (Except Alcoholism, Drug Addiction)",https://profiles.health.ny.gov/hospital/county_or_region/,2018-08-20T00:00:00.000Z,2014-02-10T00:00:00.000Z,http://www.nehealth.com/Medical_Care/Sunnyview_Rehabilitation_Hospital,northeast health inc sunnyview hospital and rehabilitation center,Non-Profit,115,NA,N,hospital
11212043,Cobleskill Regional Hospital,178 Grandview Dr,Cobleskill,NY,12043,(518) 234-2511,General Acute Care,open,40,Schoharie,USA,42.6869295010001,-74.481798662,622110,General Medical And Surgical Hospitals,https://profiles.health.ny.gov/hospital/county_or_region/,2018-08-20T00:00:00.000Z,2014-02-10T00:00:00.000Z,http://www.bassett.org/cobleskill-hospital/,NA,Non-Profit,40,NA,N,hospital
721223,Bon Secours Hospital,2000 W Baltimore Street,Baltimore,MD,21223,(410) 362-3000,General Acute Care,open,125,Baltimore City,USA,39.2883463000001,-76.649252984,622110,General Medical And Surgical Hospitals,http://dhmh.maryland.gov/ohcq/pages/licensee-directory.aspx,2018-08-09T00:00:00.000Z,2014-02-10T00:00:00.000Z,http://www.bonsecoursbaltimore.com,NA,Non-Profit,125,NA,N,hospital
11414865,Schuyler Hospital,220 Steuben St,Montour Falls,NY,14865,(607) 535-7121,Critical Access,open,25,Schuyler,USA,42.3524587540001,-76.859970585,622110,General Medical And Surgical Hospitals,https://profiles.health.ny.gov/hospital/county_or_region/,2018-08-20T00:00:00.000Z,2014-02-10T00:00:00.000Z,http://www.schuylerhospital.org,NA,Non-Profit,25,NA,Y,hospital
2021225,Medstar Harbor Hospital,3001 S Hanover Street,Baltimore,MD,21225,(410) 350-3201,General Acute Care,open,179,Baltimore City,USA,39.2521638270001,-76.614173245999993,622110,General Medical And Surgical Hospitals,http://dhmh.maryland.gov/ohcq/pages/licensee-directory.aspx,2018-08-09T00:00:00.000Z,2014-02-10T00:00:00.000Z,http://www.harborhospital.org,NA,Non-Profit,179,NA,N,hospital
1321215,Levindale Hebrew Geriatric Center & Hospital,2434 W Belvedere Avenue,Baltimore,MD,21215,(410) 601-2204,Long Term Care,open,84,Baltimore,USA,39.3545805960001,-76.664654114,622110,General Medical And Surgical Hospitals,http://dhmh.maryland.gov/ohcq/pages/licensee-directory.aspx,2018-08-09T00:00:00.000Z,2014-02-10T00:00:00.000Z,http://www.lifebridgehealth.org/Levindale/Levindale2.aspx,NA,Non-Profit,84,NA,N,hospital
2621209,Mount Washington Pediatric Hospital,1708 W Rogers Ave,Baltimore,MD,21209,(410) 578-5050,General Acute Care,open,61,Baltimore City,USA,39.363161275,-76.653709137,622110,General Medical And Surgical Hospitals,http://dhmh.maryland.gov/ohcq/pages/licensee-directory.aspx,2018-08-09T00:00:00.000Z,2014-02-10T00:00:00.000Z,http://www.mwph.org,NA,Non-Profit,61,NA,N,hospital
303801,Portsmouth Regional Hospital,333 Borthwick Ave,Portsmouth,NH,3801,(603) 436-5110,General Acute Care,open,209,Rockingham,USA,43.064852752,-70.790336929,622110,General Medical And Surgical Hospitals,http://www.dhhs.nh.gov/oos/bhfa/documents/licensedfacilities.pdf,2018-08-09T00:00:00.000Z,2013-11-19T00:00:00.000Z,http://www.portsmouthhospital.com,NA,Proprietary,209,LEVEL II,Y,hospital
2803820,Wentworth-Douglass Hospital,789 Central Avenue,Dover,NH,3820,(603) 742-5252,General Acute Care,open,178,Strafford,USA,43.2132269740001,-70.8741076379999,622110,General Medical And Surgical Hospitals,http://www.dhhs.nh.gov/oos/bhfa/documents/licensedfacilities.pdf,2018-08-09T00:00:00.000Z,2014-02-10T00:00:00.000Z,http://www.wdhospital.com,NA,Non-Profit,178,LEVEL III,Y,hospital
2003458,Monadnock Community Hospital,452 Old Street Road,Peterborough,NH,3458,(603) 924-7191,General Acute Care,open,25,Hillsborough,USA,42.8930894220001,-71.940682754,622110,General Medical And Surgical Hospitals,http://www.dhhs.nh.gov/oos/bhfa/documents/licensedfacilities.pdf,2018-08-09T00:00:00.000Z,2014-02-10T00:00:00.000Z,http://www.monadnockhospital.org,NA,Non-Profit,25,NA,Y,hospital
2103257,New London Hospital,273 County Road,New London,NH,3257,(603) 526-2911,General Acute Care,open,25,Merrimack,USA,43.4206376750001,-72.00004766,622110,General Medical And Surgical Hospitals,http://www.dhhs.nh.gov/oos/bhfa/documents/licensedfacilities.pdf,2018-08-09T00:00:00.000Z,2014-02-10T00:00:00.000Z,http://www.newlondonhospital.org,NA,Non-Profit,25,NA,Y,hospital
9040509,Saint Joseph East,150 N Eagle Creek Drive,Lexington,KY,40509,(859) 268-3750,General Acute Care,open,217,Fayette,USA,37.9994200950001,-84.439154995,622110,General Medical And Surgical Hospitals,https://chfs.ky.gov/agencies/os/oig/dhc/Documents/Directories/Hospital_Directory.pdf,2018-08-11T00:00:00.000Z,2014-02-10T00:00:00.000Z,http://www.sjhlex.org/system-locations-saint-joseph-east-lexington-ky-hospital,NA,Non-Profit,217,NA,N,hospital
13012401,Healthalliance Hospital - Mary's Avenue Campsu,105 Mary's Avenue,Kingston,NY,12401,(845) 338-2500,General Acute Care,open,150,Ulster,USA,41.921494157,-73.999687122,622110,General Medical And Surgical Hospitals,https://profiles.health.ny.gov/hospital/county_or_region/,2018-08-20T00:00:00.000Z,2014-02-10T00:00:00.000Z,http://www.hahv.org/marys-ave-campus/,NA,Non-Profit,150,NA,Y,hospital
13510601,White Plains Hospital Center,41 E Post Rd,White Plains,NY,10601,(914) 681-0600,General Acute Care,open,292,Westchester,USA,41.02559431,-73.769305098,622110,General Medical And Surgical Hospitals,https://profiles.health.ny.gov/hospital/county_or_region/,2018-08-20T00:00:00.000Z,2014-02-10T00:00:00.000Z,http://www.wphospital.org,NA,Non-Profit,292,NA,N,hospital
14710708,New York-Presbyterian/Lawrence Hospital,55 Palmer Ave,Bronxville,NY,10708,(914) 787-1000,General Acute Care,open,187,Westchester,USA,40.9420908710001,-73.836564203,622110,General Medical And Surgical Hospitals,https://profiles.health.ny.gov/hospital/county_or_region/,2018-08-20T00:00:00.000Z,2014-02-10T00:00:00.000Z,http://www.nyplawrence.org/,NA,Non-Profit,187,NA,Y,hospital
3742066,Jackson Purchase Medical Center,1099 Medical Center Circle,Mayfield,KY,42066,(270) 251-4100,General Acute Care,open,107,Graves,USA,36.759208992,-88.65125908,622110,General Medical And Surgical Hospitals,https://chfs.ky.gov/agencies/os/oig/dhc/Documents/Directories/Hospital_Directory.pdf,2018-08-11T00:00:00.000Z,2014-02-10T00:00:00.000Z,http://www.jacksonpurchase.com,NA,Proprietary,107,NA,Y,hospital
14914527,Soldiers And Sailors Memorial Hospital,418 N Main St,Penn Yan,NY,14527,(315) 531-2000,Critical Access,open,25,Yates,USA,42.6714006660001,-77.061199575,622110,General Medical And Surgical Hospitals,https://profiles.health.ny.gov/hospital/county_or_region/,2018-08-20T00:00:00.000Z,2014-02-10T00:00:00.000Z,http://www.flhealth.org,NA,Non-Profit,25,NA,N,hospital
15010456,Bronx-Lebanon Hospital Center - Fulton Division,1276 Fulton Ave,Bronx,NY,10456,(718) 409-7742,General Acute Care,open,164,Bronx,USA,40.831714789,-73.904056984,622110,General Medical And Surgical Hospitals,https://profiles.health.ny.gov/hospital/county_or_region/,2018-08-20T00:00:00.000Z,2014-02-10T00:00:00.000Z,http://www.bronxcare.org,NA,Non-Profit,164,NA,N,hospital
3821742,Western Maryland Center,1500 Pennsylvania Ave,Hagerstown,MD,21742,(301) 745-4140,Long Term Care,open,60,Washington,USA,39.6624273360001,-77.716311924,622110,General Medical And Surgical Hospitals,http://dhmh.maryland.gov/ohcq/pages/licensee-directory.aspx,2018-08-09T00:00:00.000Z,2014-02-10T00:00:00.000Z,http://www.wmhc.us,NA,Government - State,60,NA,N,hospital
15814550,Wyoming County Community Hospital,400 N Main St,Warsaw,NY,14550,(585) 786-8940,General Acute Care,open,62,Wyoming,USA,42.754300035,-78.131072504,622110,General Medical And Surgical Hospitals,https://profiles.health.ny.gov/hospital/county_or_region/,2018-08-20T00:00:00.000Z,2014-02-10T00:00:00.000Z,http://www.wcchs.net,NA,Government - Local,62,NA,Y,hospital
17311237,Wyckoff Heights Medical Center,374 Stockholm St,Brooklyn,NY,11237,(718) 963-7272,General Acute Care,open,324,Kings,USA,40.7039640410001,-73.9177636969999,622110,General Medical And Surgical Hospitals,https://profiles.health.ny.gov/hospital/county_or_region/,2018-08-20T00:00:00.000Z,2014-02-10T00:00:00.000Z,http://www.wyckoffhospital.org,NA,Non-Profit,324,NA,N,hospital
18110021,Lenox Hill Hospital,100 E 77th St,New York,NY,10021,(212) 434-2060,General Acute Care,open,632,New York,USA,40.773702681,-73.960890772,622110,General Medical And Surgical Hospitals,https://profiles.health.ny.gov/hospital/county_or_region/,2018-08-20T00:00:00.000Z,2014-02-10T00:00:00.000Z,http://www.lenoxhillhospital.org,NA,Non-Profit,632,NA,N,hospital
19210304,Richmond University Medical Center - Bayley Seton Campus,75 Vanderbilt Ave,Staten Island,NY,10304,(718) 390-6000,Psychiatric,open,25,Richmond,USA,40.6224278220001,-74.075354595,622210,Psychiatric And Substance Abuse Hospitals,https://profiles.health.ny.gov/hospital/county_or_region/,2018-08-20T00:00:00.000Z,2014-02-10T00:00:00.000Z,http://rumcsi.org/main/behavioralhealth.aspx,NA,Non-Profit,25,NA,N,hospital
19411355,Flushing Hospital Medical Center,45 Th Ave & Parsons Blvd,Flushing,NY,11355,(718) 670-5918,General Acute Care,open,293,Queens,USA,40.7554099230001,-73.816465518,622110,General Medical And Surgical Hospitals,https://profiles.health.ny.gov/hospital/county_or_region/,2018-08-20T00:00:00.000Z,2014-02-10T00:00:00.000Z,http://www.flushinghospital.org,NA,Non-Profit,293,NA,N,hospital
19811691,St. John's Episcopal Hospital-South Shore,327 Beach 19th St,Far Rockaway,NY,11691,(718) 868-7320,General Acute Care,open,241,Queens,USA,40.598707984,-73.753550616,622110,General Medical And Surgical Hospitals,https://profiles.health.ny.gov/hospital/county_or_region/,2018-08-20T00:00:00.000Z,2014-02-10T00:00:00.000Z,http://www.ehs.org,NA,Non-Profit,241,NA,N,hospital
2461832,Veterans Affairs Illiana Health Care System,1900 E. Main,Danville,IL,61832,(217) 554-3000,Military,open,221,Vermilion,USA,40.1232717130001,-87.586953131,622110,General Medical And Surgical Hospitals,https://data.illinois.gov/,2018-08-09T00:00:00.000Z,2014-03-12T00:00:00.000Z,http://www.danville.va.gov/,NA,Government - Federal,221,NA,Y,hospital
2942102,Greenview Regional Hospital,1801 Ashley Circle,Bowling Green,KY,42102,(270) 793-1000,General Acute Care,open,211,Warren,USA,36.9650376160001,-86.4359797719999,622110,General Medical And Surgical Hospitals,https://chfs.ky.gov/agencies/os/oig/dhc/Documents/Directories/Hospital_Directory.pdf,2018-08-11T00:00:00.000Z,2014-02-10T00:00:00.000Z,http://www.greenviewhospital.com,NA,Proprietary,211,NA,Y,hospital
8442103,Rivendell Behavioral Health Services,1035 Porter Pike Rd,Bowling Green,KY,42103,(270) 843-1199,Psychiatric,open,125,Warren,USA,36.997072008,-86.383136954,622110,General Medical And Surgical Hospitals,https://chfs.ky.gov/agencies/os/oig/dhc/Documents/Directories/Hospital_Directory.pdf,2018-08-11T00:00:00.000Z,2014-02-10T00:00:00.000Z,http://www.rivendellbehavioral.com,NA,Proprietary,125,NA,N,hospital
11348661,West Branch Regional Medical Center,2463 South M-30,West Branch,MI,48661,NOT AVAILABLE,General Acute Care,open,88,Ogemaw,USA,44.2638023100001,-84.244300761,622110,General Medical And Surgical Hospitals,https://w2.lara.state.mi.us/VAL/License/Search,2018-08-09T00:00:00.000Z,2014-01-30T00:00:00.000Z,http://www.wbrmc.com,NA,Government - Local,88,NA,Y,hospital
114210457,Bronx-Lebanon Hospital Center - Concourse Division,1650 Grand Concourse,Bronx,NY,10457,(718) 901-8800,General Acute Care,open,415,Bronx,USA,40.8434925500001,-73.911146945,622110,General Medical And Surgical Hospitals,https://profiles.health.ny.gov/hospital/county_or_region/,2018-08-20T00:00:00.000Z,2015-02-11T00:00:00.000Z,http://www.bronxcare.org,NA,Non-Profit,415,NA,N,hospital
114312308,Ellis Hospital,1101 Nott Street,Schenectady,NY,12308,(518) 243-4000,General Acute Care,open,368,Schenectady,USA,42.819857616,-73.917318091,622110,General Medical And Surgical Hospitals,https://profiles.health.ny.gov/hospital/county_or_region/,2018-08-20T00:00:00.000Z,2015-02-11T00:00:00.000Z,http://www.ellismedicine.org/,NA,Non-Profit,368,NA,N,hospital
115014127,Mercy Hospital - Mercy Hospital Orchard Park Division,3669 Southwestern Blvd,Orchard Park,NY,14127,(716) 662-0500,General Acute Care,open,2,Erie,USA,42.7805450930001,-78.7725727879999,622110,General Medical And Surgical Hospitals,https://profiles.health.ny.gov/hospital/county_or_region/,2018-08-20T00:00:00.000Z,2015-02-11T00:00:00.000Z,http://www.chsbuffalo.org/Facilities/Diagnostic/MercyAmbulatoryCareCenter,NA,Non-Profit,2,NA,N,hospital
12241858,Whitesburg Arh Hospital,240 Hospital Road,Whitesburg,KY,41858,(606) 633-3500,General Acute Care,open,90,Letcher,USA,37.1129272210001,-82.812521793,622110,General Medical And Surgical Hospitals,https://chfs.ky.gov/agencies/os/oig/dhc/Documents/Directories/Hospital_Directory.pdf,2018-08-11T00:00:00.000Z,2014-02-10T00:00:00.000Z,http://www.arh.org/whitesburg,NA,Non-Profit,90,LEVEL IV,Y,hospital
115610034,New York Presbyterian Hospital - Allen Hospital,5141 Broadway,New York,NY,10034,(212) 932-4000,General Acute Care,open,196,New York,USA,40.873275237,-73.913050326,622110,General Medical And Surgical Hospitals,https://profiles.health.ny.gov/hospital/county_or_region/,2018-08-20T00:00:00.000Z,2015-02-11T00:00:00.000Z,http://www.nyp.org/allenhospital,NA,Non-Profit,196,NA,N,hospital
115910567,Newyork-Presbyterian/Hudson Valley Hospital,1980 Crompond Road,Cortlandt Manor,NY,10567,(914) 737-9000,General Acute Care,open,128,Westchester,USA,41.2924646600001,-73.892600988,622110,General Medical And Surgical Hospitals,https://profiles.health.ny.gov/hospital/county_or_region/,2018-08-20T00:00:00.000Z,2015-02-11T00:00:00.000Z,http://www.hvhc.org,NA,Non-Profit,128,NA,N,hospital
116014437,Nicholas H Noyes Memorial Hospital,111 Clara Barton Street,Dansville,NY,14437,(585) 335-6001,General Acute Care,open,67,Livingston,USA,42.553025254,-77.6977707839999,622110,General Medical And Surgical Hospitals,https://profiles.health.ny.gov/hospital/county_or_region/,2018-08-20T00:00:00.000Z,2015-02-11T00:00:00.000Z,http://www.noyes-health.org/,NA,Non-Profit,67,NA,Y,hospital
116112572,Northern Dutchess Hospital,6511 Springbrook Avenue,Rhinebeck,NY,12572,(845) 871-3001,General Acute Care,open,68,Dutchess,USA,41.9354700380001,-73.913195827,622110,General Medical And Surgical Hospitals,https://profiles.health.ny.gov/hospital/county_or_region/,2018-08-20T00:00:00.000Z,2015-02-11T00:00:00.000Z,http://www.healthquest.org/rhinebeck/northern-dutchess-hospital.aspx,NA,Non-Profit,68,NA,N,hospital
116513126,Oswego Hospital - Alvin L Krakau Comm Mtl Health Center Div,74 Bunner Street,Oswego,NY,13126,(315) 349-5526,Psychiatric,open,32,Oswego,USA,43.448561999,-76.489916857,622210,Psychiatric And Substance Abuse Hospitals,https://profiles.health.ny.gov/hospital/county_or_region/,2018-08-20T00:00:00.000Z,2015-02-11T00:00:00.000Z,http://www.oswegohealth.org,NA,Non-Profit,32,NA,N,hospital
116610021,Rockefeller University Hospital,1230 York Avenue,New York,NY,10021,(212) 327-7511,General Acute Care,open,40,New York,USA,40.7630474440001,-73.954623172,622110,General Medical And Surgical Hospitals,https://profiles.health.ny.gov/hospital/county_or_region/,2018-08-20T00:00:00.000Z,2015-02-11T00:00:00.000Z,https://www.rucares.org/,NA,Government - State,40,NA,N,hospital
13562016,Thomas H Boyd Memorial Hospital,800 School St,Carrollton,IL,62016,(217) 942-6946,Critical Access,open,286,Greene,USA,39.2968025930001,-90.412764008,622110,General Medical And Surgical Hospitals,https://data.illinois.gov/,2018-08-09T00:00:00.000Z,2014-03-12T00:00:00.000Z,www.boydhcs.org/,NA,Non-Profit,286,NA,Y,hospital
9162959,Heartland Regional Medical Center,3333 W De Young,Marion,IL,62959,(618) 998-7000,General Acute Care,open,92,Williamson,USA,37.742843169,-88.991335579,622110,General Medical And Surgical Hospitals,https://data.illinois.gov/,2018-08-09T00:00:00.000Z,2014-03-12T00:00:00.000Z,http://www.heartlandregional.com,NA,Proprietary,92,NA,Y,hospital
118610019,Mount Sinai West,1000 Tenth Avenue,New York,NY,10019,(212) 523-7225,General Acute Care,open,514,New York,USA,40.769820607,-73.987401899,622110,General Medical And Surgical Hospitals,https://profiles.health.ny.gov/hospital/county_or_region/,2018-08-20T00:00:00.000Z,2015-05-12T00:00:00.000Z,http://www.roosevelthospitalnyc.org/index.aspx,mount sinai roosevelt,Non-Profit,514,NA,N,hospital
2508053,Marlton Rehabilitation Hospital,92 Brick Road,Marlton,NJ,8053,(856) 988-8778,Rehabilitation,open,46,Burlington,USA,39.88243807,-74.91813873,622310,"Rehabilitation Hospitals (Except Alcoholism, Drug Addiction)",https://www.state.nj.us/health/healthfacilities/findhospital.shtml,2018-08-09T00:00:00.000Z,2013-12-06T00:00:00.000Z,http://www.marltonrehab.com,NA,Proprietary,46,NA,N,hospital
119310038,New York-Presbyterian/Lower Manhattan Hospital,170 William Street,New York,NY,10038,(212) 312-5175,General Acute Care,open,180,New York,USA,40.7105167880001,-74.0052978259999,622110,General Medical And Surgical Hospitals,https://profiles.health.ny.gov/hospital/county_or_region/,2018-08-20T00:00:00.000Z,2015-02-24T00:00:00.000Z,http://www.nyp.org/lowermanhattan,new york downtown hospital,Non-Profit,180,NA,N,hospital
119810605,Winifred Masterson Burke Rehabilitation Hospital,785 Mamaroneck Avenue,White Plains,NY,10605,(914) 948-0050,Rehabilitation,open,150,Westchester,USA,41.016808681,-73.7515054959999,622310,"Rehabilitation Hospitals (Except Alcoholism, Drug Addiction)",https://profiles.health.ny.gov/hospital/county_or_region/,2018-08-20T00:00:00.000Z,2015-02-24T00:00:00.000Z,http://www.burke.org/,burkey rehabilitation hospital,Non-Profit,150,NA,N,hospital
119914843,St James Mercy Hospital - Mercycare,1 Bethesda Drive,North Hornell,NY,14843,NOT AVAILABLE,General Acute Care,closed,NA,Steuben,USA,42.3474877400001,-77.663097906,622110,General Medical And Surgical Hospitals,https://profiles.health.ny.gov/hospital/county_or_region/,2018-08-20T00:00:00.000Z,2015-02-24T00:00:00.000Z,NOT AVAILABLE,NA,Non-Profit,NA,NA,N,hospital
121114830,Corning Hospital,1 Guthrie Drive,Corning,NY,14830,(607) 937-7200,General Acute Care,open,65,Steuben,USA,42.1353507900001,-76.9695177679999,622110,General Medical And Surgical Hospitals,https://profiles.health.ny.gov/hospital/county_or_region/,2018-08-20T00:00:00.000Z,2015-02-24T00:00:00.000Z,https://www.guthrie.org/location/guthrie-corning-hospital,NA,Not Available,65,NA,Y,hospital
10510548,Va Medical Center - Montrose Campus,2094 Albany Post Rd,Montrose,NY,10548,NOT AVAILABLE,Military,open,NA,Westchester,USA,41.237018806,-73.9292820429999,622110,General Medical And Surgical Hospitals,https://profiles.health.ny.gov/hospital/county_or_region/,2018-08-20T00:00:00.000Z,2015-05-22T00:00:00.000Z,http://www.hudsonvalley.va.gov/,NA,Government - Federal,NA,NA,N,hospital
10913210,Va Medical Center - Syracuse,800 Irving Ave,Syracuse,NY,13210,NOT AVAILABLE,Military,open,NA,Onondaga,USA,43.038831198,-76.138954177,622110,General Medical And Surgical Hospitals,https://profiles.health.ny.gov/hospital/county_or_region/,2018-08-20T00:00:00.000Z,2015-05-22T00:00:00.000Z,http://www.syracuse.va.gov/,NA,Government - Federal,NA,NA,N,hospital
30412208,Capital District Psychiatric Center,75 New Scotland Ave,Albany,NY,12208,(518) 549-6000,Psychiatric,open,NA,Albany,USA,42.654490713,-73.780202854,622210,Psychiatric And Substance Abuse Hospitals,https://profiles.health.ny.gov/hospital/county_or_region/,2018-08-20T00:00:00.000Z,2016-08-29T00:00:00.000Z,https://www.omh.ny.gov/omhweb/facilities/cdpc/,NA,Government - State,NA,NA,N,hospital
25411701,"Brunswick Hospital Center, Inc",81 Louden Avenue,Amityville,NY,11701,(631) 789-7225,Psychiatric,open,124,Suffolk,USA,40.685236608,-73.421145351,622210,Psychiatric And Substance Abuse Hospitals,https://profiles.health.ny.gov/hospital/county_or_region/,2018-08-20T00:00:00.000Z,2016-09-13T00:00:00.000Z,http://www.brunswickhospitalcenter.org/,NA,Proprietary,124,NA,N,hospital
3062052,Jersey Community Hospital,400 Maple Summit Road,Jerseyville,IL,62052,(618) 498-6402,General Acute Care,open,49,Jersey,USA,39.11054067,-90.342887162,622110,General Medical And Surgical Hospitals,https://data.illinois.gov/,2018-08-09T00:00:00.000Z,2014-03-12T00:00:00.000Z,http://www.jch.org,NA,Government - District/Authority,49,NA,Y,hospital
6321550,Garrett County Memorial Hospital,251 N Fourth St,Oakland,MD,21550,(301) 533-4173,General Acute Care,open,55,Garrett,USA,39.4134407440001,-79.400978518,622110,General Medical And Surgical Hospitals,http://dhmh.maryland.gov/ohcq/pages/licensee-directory.aspx,2018-08-09T00:00:00.000Z,2014-03-12T00:00:00.000Z,http://www.gcmh.com,NA,Non-Profit,55,NA,Y,hospital
57277665,Winnie Community Hospital,538 Broadway,Winnie,TX,77665,(409) 296-6000,Critical Access,open,25,Chambers,USA,29.8196971090001,-94.37646869,622110,General Medical And Surgical Hospitals,http://www.dshs.texas.gov/facilities/find-a-licensee.aspx,2018-08-11T00:00:00.000Z,2014-02-10T00:00:00.000Z,http://www.winniehospital.com,NA,Proprietary,25,NA,Y,hospital
7076821,Ballinger Memorial Hospital,608 Avenue B,Ballinger,TX,76821,(325) 365-2531,Critical Access,open,25,Runnels,USA,31.749972916,-99.962909783,622110,General Medical And Surgical Hospitals,http://www.dshs.texas.gov/facilities/find-a-licensee.aspx,2018-08-11T00:00:00.000Z,2014-01-21T00:00:00.000Z,http://www.ballingerhospital.org,NA,Government - District/Authority,25,LEVEL IV,Y,hospital
9877836,Chi St. Joseph Health Burleson Hospital,1101 Woodson Drive,Caldwell,TX,77836,(979) 567-3245,Critical Access,open,25,Burleson,USA,30.5202304320001,-96.716286833,622110,General Medical And Surgical Hospitals,http://www.dshs.texas.gov/facilities/find-a-licensee.aspx,2018-08-11T00:00:00.000Z,2014-02-10T00:00:00.000Z,http://www.st-joseph.org/,burleson st. joseph health center of caldwell,Non-Profit,25,LEVEL IV,Y,hospital
10679225,Chillicothe Hospital,303 Ave I,Chillicothe,TX,79225,(940) 852-5131,Critical Access,open,21,Hardeman,USA,34.254752259,-99.515796028,622110,General Medical And Surgical Hospitals,http://www.dshs.texas.gov/facilities/find-a-licensee.aspx,2018-08-11T00:00:00.000Z,2014-01-23T00:00:00.000Z,http://www.chillicothehospital.org,NA,Government - District/Authority,21,LEVEL IV,N,hospital
16977434,Rice Medical Center,600 Austin Road,Eagle Lake,TX,77434,(979) 234-5571,Critical Access,open,25,Colorado,USA,29.587758577,-96.345284696,622110,General Medical And Surgical Hospitals,http://www.dshs.texas.gov/facilities/find-a-licensee.aspx,2018-08-11T00:00:00.000Z,2014-03-12T00:00:00.000Z,http://www.ricemedicalcenter.net/,NA,Proprietary,25,LEVEL IV,Y,hospital
17276837,Concho County Hospital,Eaker Street,Eden,TX,76837,(325) 869-5911,Critical Access,open,16,Concho,USA,31.221292659,-99.84811412,622110,General Medical And Surgical Hospitals,http://www.dshs.texas.gov/facilities/find-a-licensee.aspx,2018-08-11T00:00:00.000Z,2014-02-10T00:00:00.000Z,http://www.conchocountyhospital.com,NA,Government - District/Authority,16,LEVEL IV,Y,hospital
21679035,Parmer Medical Center,1307 Cleveland Street,Friona,TX,79035,(806) 250-2754,Critical Access,open,25,Parmer,USA,34.644274164,-102.721824238,622110,General Medical And Surgical Hospitals,http://www.dshs.texas.gov/facilities/find-a-licensee.aspx,2018-08-11T00:00:00.000Z,2014-02-10T00:00:00.000Z,http://www.parmermedicalcenter.com,NA,Non-Profit,25,LEVEL IV,Y,hospital
24575948,Sabine County Hospital,2301 Worth St,Hemphill,TX,75948,NOT AVAILABLE,Critical Access,open,25,Sabine,USA,31.333808731,-93.8629645139999,622110,General Medical And Surgical Hospitals,http://www.dshs.texas.gov/facilities/find-a-licensee.aspx,2018-08-11T00:00:00.000Z,2014-02-03T00:00:00.000Z,http://sabinecountyhospital.com/,NA,Proprietary,25,LEVEL IV,Y,hospital
31275766,Christus Mother Frances Hospital Jacksonville,2026 South Jackson,Jacksonville,TX,75766,(903) 541-4500,Critical Access,open,25,Cherokee,USA,31.938525924,-95.247774364,622110,General Medical And Surgical Hospitals,http://www.dshs.texas.gov/facilities/find-a-licensee.aspx,2018-08-11T00:00:00.000Z,2014-02-10T00:00:00.000Z,https://www.tmfhc.org/maps-and-locations/locations-profile/?id=9,NA,Non-Profit,25,LEVEL IV,Y,hospital
33676550,Rollins Brook Community Hospital,608 North Key Avenue,Lampasas,TX,76550,(254) 519-8165,Critical Access,open,25,Lampasas,USA,31.072186303,-98.186225404,622110,General Medical And Surgical Hospitals,http://www.dshs.texas.gov/facilities/find-a-licensee.aspx,2018-08-11T00:00:00.000Z,2014-02-10T00:00:00.000Z,http://www.mplex.org/about-us/rollins-brook,NA,Non-Profit,25,LEVEL IV,Y,hospital
5021237,Medstar Franklin Square Medical Center,9000 Franklin Square Dr,Baltimore,MD,21237,(443) 777-7850,General Acute Care,open,347,Baltimore,USA,39.3507893990001,-76.479906714,622110,General Medical And Surgical Hospitals,http://dhmh.maryland.gov/ohcq/pages/licensee-directory.aspx,2018-08-09T00:00:00.000Z,2014-02-10T00:00:00.000Z,http://www.medstarfranklin.org,NA,Non-Profit,347,NA,N,hospital
5121204,Greater Baltimore Medical Center,6701 North  Charles Street,Baltimore,MD,21204,(443) 849-2000,General Acute Care,open,232,Baltimore,USA,39.39085636,-76.6245565099999,622110,General Medical And Surgical Hospitals,http://dhmh.maryland.gov/ohcq/pages/licensee-directory.aspx,2018-08-09T00:00:00.000Z,2014-02-10T00:00:00.000Z,http://www.gbmc.org,NA,Non-Profit,232,NA,N,hospital
6521228,Spring Grove Hospital Center,Wade Avenue,Catonsville,MD,21228,(410) 402-7455,Psychiatric,open,425,Baltimore,USA,39.2647554970001,-76.7225854009999,622110,General Medical And Surgical Hospitals,http://dhmh.maryland.gov/ohcq/pages/licensee-directory.aspx,2018-08-09T00:00:00.000Z,2014-02-10T00:00:00.000Z,http://www.springgrove.com/,NA,Government - State,425,NA,N,hospital
39576252,Muenster Memorial Hospital,605 North Maple Street,Muenster,TX,76252,(940) 759-2271,Critical Access,open,18,Cooke,USA,33.6539573380001,-97.3803233579999,622110,General Medical And Surgical Hospitals,http://www.dshs.texas.gov/facilities/find-a-licensee.aspx,2018-08-11T00:00:00.000Z,2014-02-10T00:00:00.000Z,http://muensterhospital.com/,NA,Government - District/Authority,18,LEVEL IV,Y,hospital
961605,Greater Peoria Specialty Hospital Llc - Dba Kindred Hospital Peoria,500 West Romeo B Garrett Avenue,Peoria,IL,61605,(309) 680-1500,Long Term Care,open,50,Peoria,USA,40.692888624,-89.6007296509999,622110,General Medical And Surgical Hospitals,https://data.illinois.gov/,2018-08-09T00:00:00.000Z,2014-02-10T00:00:00.000Z,http://www.khpeoria.com/,NA,Proprietary,50,NA,N,hospital
861614,Proctor Hospital,5409 N Knoxville Ave,Peoria,IL,61614,(309) 691-1000,General Acute Care,open,172,Peoria,USA,40.752968051,-89.597865558,622110,General Medical And Surgical Hospitals,https://data.illinois.gov/,2018-08-09T00:00:00.000Z,2014-03-12T00:00:00.000Z,http://www.proctor.org,NA,Non-Profit,172,NA,Y,hospital
1360649,Larabida Children's Hospital,East 65th At Lake Michigan,Chicago,IL,60649,(773) 363-6700,Children,open,NA,Cook,USA,41.777293335,-87.5713124339999,622110,"Children's Hospitals, General",https://data.illinois.gov/,2018-08-09T00:00:00.000Z,2014-02-10T00:00:00.000Z,http://www.larabida.org/,NA,Non-Profit,NA,NA,N,hospital
50476950,Lillian M. Hudspeth Memorial Hospital,308 Hudspeth Drive,Sonora,TX,76950,(325) 387-2521,Critical Access,open,12,Sutton,USA,30.5634092760001,-100.634435948,622110,General Medical And Surgical Hospitals,http://www.dshs.texas.gov/facilities/find-a-licensee.aspx,2018-08-11T00:00:00.000Z,2014-02-07T00:00:00.000Z,http://www.sonora-hospital.org,NA,Government - District/Authority,12,LEVEL IV,Y,hospital
2060624,Rml Health Providers Limited Partnership - Dba Rml Chicago,3435 West Van Buren Street,Chicago,IL,60624,(773) 826-6400,Long Term Care,open,68,Cook,USA,41.8749448930001,-87.712272054,622110,General Medical And Surgical Hospitals,https://data.illinois.gov/,2018-08-09T00:00:00.000Z,2014-02-10T00:00:00.000Z,http://www.rmlspecialtyhospital.org,NA,Non-Profit,68,NA,N,hospital
2460635,Shriners Hospital For Children - Chicago,2211 North Oak Park Avenue,Chicago,IL,60707,(773) 622-5400,Children,open,36,Cook,USA,41.9198380380001,-87.793422515,622110,"Children's Hospitals, General",https://data.illinois.gov/,2018-08-09T00:00:00.000Z,2014-02-10T00:00:00.000Z,http://www.shrinershospitalsforchildren.org/Hospitals/Locations/Chic ago.aspx,NA,Non-Profit,36,NA,N,hospital
2960164,"Thc Chicago, Inc. - Dba Kindred Hospital - Northlake",365 East North Avenue,Northlake,IL,60164,(708) 345-8100,Long Term Care,open,94,Cook,USA,41.9069037900001,-87.8905897719999,622110,General Medical And Surgical Hospitals,https://data.illinois.gov/,2018-08-09T00:00:00.000Z,2014-02-10T00:00:00.000Z,http://www.kindrednorthlake.com/,NA,Proprietary,94,NA,N,hospital
5160621,St Bernard Hospital,326 W 64th St,Chicago,IL,60621,(773) 962-3900,General Acute Care,open,100,Cook,USA,41.778394561,-87.6336013389999,622110,General Medical And Surgical Hospitals,https://data.illinois.gov/,2018-08-09T00:00:00.000Z,2014-02-10T00:00:00.000Z,http://www.stbernardhospital.com,NA,Non-Profit,100,NA,N,hospital
5460625,Swedish Covenant Hospital,5145 N California Ave,Chicago,IL,60625,(773) 878-8200,General Acute Care,open,279,Cook,USA,41.975351554,-87.69946587,622110,General Medical And Surgical Hospitals,https://data.illinois.gov/,2018-08-09T00:00:00.000Z,2014-02-10T00:00:00.000Z,http://www.schosp.org,NA,Non-Profit,279,NA,N,hospital
5760631,Resurrection Medical Center,7435 W Talcott Avenue,Chicago,IL,60631,(773) 774-8000,General Acute Care,open,402,Cook,USA,41.9875002920001,-87.8135458199999,622110,General Medical And Surgical Hospitals,https://data.illinois.gov/,2018-08-09T00:00:00.000Z,2014-03-12T00:00:00.000Z,http://www.reshealthcare.org,NA,Non-Profit,402,NA,Y,hospital
6660629,Holy Cross Hospital,2701 W 68th Street,Chicago,IL,60629,(773) 471-8000,General Acute Care,open,160,Cook,USA,41.769406691,-87.6923803299999,622110,General Medical And Surgical Hospitals,https://data.illinois.gov/,2018-08-09T00:00:00.000Z,2014-01-16T00:00:00.000Z,http://www.holycrosshospital.org,NA,Proprietary,160,NA,N,hospital
8360461,Franciscan St James Health,20201 S Crawford Avenue,Olympia Fields,IL,60461,(708) 747-4000,General Acute Care,open,398,Cook,USA,41.52310929,-87.711350169,622110,General Medical And Surgical Hospitals,https://data.illinois.gov/,2018-08-09T00:00:00.000Z,2014-03-12T00:00:00.000Z,http://www.stjameshhc.org,NA,Non-Profit,398,NA,Y,hospital
9660426,Ingalls Memorial Hospital,One Ingalls Drive,Harvey,IL,60426,(708) 333-2300,General Acute Care,open,344,Cook,USA,41.607379973,-87.65941817,622110,General Medical And Surgical Hospitals,https://data.illinois.gov/,2018-08-09T00:00:00.000Z,2014-03-12T00:00:00.000Z,http://www.ingallshealthsystem.org,NA,Non-Profit,344,NA,Y,hospital
11460160,Westlake Community Hospital,1225 Lake St,Melrose Park,IL,60160,(708) 938-7201,General Acute Care,open,181,Cook,USA,41.8929601150001,-87.848494976,622110,General Medical And Surgical Hospitals,https://data.illinois.gov/,2018-08-09T00:00:00.000Z,2014-01-17T00:00:00.000Z,https://www.westlakehosp.com/home,NA,Proprietary,181,NA,N,hospital
12460115,Kishwaukee Community Hospital,One Kish Hospital Drive,Dekalb,IL,60115,(815) 756-1521,General Acute Care,open,98,Dekalb,USA,41.9613962110001,-88.7228915489999,622110,General Medical And Surgical Hospitals,https://data.illinois.gov/,2018-08-09T00:00:00.000Z,2014-03-12T00:00:00.000Z,http://www.kishhospital.org,NA,Non-Profit,98,NA,Y,hospital
2840324,Georgetown Community Hospital,1140 Lexington Road,Georgetown,KY,40324,(502) 868-1100,General Acute Care,open,75,Scott,USA,38.186518506,-84.5609107939999,622110,General Medical And Surgical Hospitals,https://chfs.ky.gov/agencies/os/oig/dhc/Documents/Directories/Hospital_Directory.pdf,2018-08-11T00:00:00.000Z,2013-12-18T00:00:00.000Z,http://www.georgetowncommunityhospital.com,NA,Proprietary,75,NA,N,hospital
5526757,Hampshire Memorial Hospital,363 Sunrise Boulevard,Romney,WV,26757,(304) 822-4560,Critical Access,open,44,Hampshire,USA,39.3509514150001,-78.757735942,622110,General Medical And Surgical Hospitals,https://ohflac.wvdhhr.org/Apps/Lookup/FacilitySearch,2018-08-10T00:00:00.000Z,2014-02-10T00:00:00.000Z,http://www.valleyhealthlink.com/hampshire,"east mountain health advantage, inc.",Non-Profit,44,NA,N,hospital
2624970,Greenbrier Valley Medical Center,"1320 Maplewood Avenue, Po Box 497",Ronceverte,WV,24970,(304) 647-4410,General Acute Care,open,122,Greenbrier,USA,37.773160671,-80.4702492279999,622110,General Medical And Surgical Hospitals,https://ohflac.wvdhhr.org/Apps/Lookup/FacilitySearch,2018-08-10T00:00:00.000Z,2014-02-10T00:00:00.000Z,http://www.gvmc.com,greenbrier valley mededical center,Proprietary,122,NA,Y,hospital
9941017,St. Elizabeth Edgewood,1 Medical Village Dr.,Edgewood,KY,41017,(859) 344-2000,General Acute Care,open,480,Kenton,USA,39.013178162,-84.562789719,622110,General Medical And Surgical Hospitals,https://chfs.ky.gov/agencies/os/oig/dhc/Documents/Directories/Hospital_Directory.pdf,2018-08-11T00:00:00.000Z,2014-02-10T00:00:00.000Z,http://www.stelizabeth.com,NA,Non-Profit,480,NA,Y,hospital
925709,Mildred Mitchell-Bateman Hospital,1530 Norway Avenue,Huntington,WV,25709,(304) 525-7800,Psychiatric,open,90,Cabell,USA,38.4127655930001,-82.41330097,622210,Psychiatric And Substance Abuse Hospitals,https://ohflac.wvdhhr.org/Apps/Lookup/FacilitySearch,2018-08-10T00:00:00.000Z,2014-02-10T00:00:00.000Z,http://www.batemanhospital.org,mildred mitchell-bateman hospital,Government - State,90,NA,N,hospital
5726003,Peterson Rehabilitation Hospital,Homestead Avenue,Wheeling,WV,26003,(304) 234-0500,Rehabilitation,open,172,Ohio,USA,40.0798862240001,-80.693998366,622310,"Rehabilitation Hospitals (Except Alcoholism, Drug Addiction)",https://ohflac.wvdhhr.org/Apps/Lookup/FacilitySearch,2018-08-10T00:00:00.000Z,2013-11-15T00:00:00.000Z,http://weat.com/site6/,peterson rehabilitation hospital & geriatric center,Proprietary,172,NA,N,hospital
5626105,Healthsouth Western Hills Regional Rehab Hospital,3 Western Hills Drive,Parkersburg,WV,26105,(304) 420-1300,Rehabilitation,open,40,Wood,USA,39.3055909600001,-81.534351221,622310,"Rehabilitation Hospitals (Except Alcoholism, Drug Addiction)",https://ohflac.wvdhhr.org/Apps/Lookup/FacilitySearch,2018-08-10T00:00:00.000Z,2013-11-15T00:00:00.000Z,http://www.healthsouthwesternhills.com,h/s western hills reg. rehab.,Proprietary,40,NA,N,hospital
2025526,Camc Teays Valley Hospital,1400 Hospital Drive,Hurricane,WV,25526,(304) 757-1700,General Acute Care,open,70,Putnam,USA,38.4516855640001,-81.952102859,622110,General Medical And Surgical Hospitals,https://ohflac.wvdhhr.org/Apps/Lookup/FacilitySearch,2018-08-10T00:00:00.000Z,2014-02-10T00:00:00.000Z,http://www.camc.org,charleston area medical center,Non-Profit,70,NA,Y,hospital
16725801,Va Medical Center - Beckley,200 Veterans Ave,Beckley,WV,25801,(304) 255-2121,Military,open,NA,Raleigh,USA,37.764965481,-81.193200772,622110,General Medical And Surgical Hospitals,https://www.va.gov/directory/guide/allstate.asp,2018-09-26T00:00:00.000Z,2015-05-29T00:00:00.000Z,http://www.beckley.va.gov/,NA,Government - Federal,NA,NA,N,hospital
4541101,Kings Daughters Medical Center,2201 Lexington Ave,Ashland,KY,41101,(606) 327-4401,General Acute Care,open,455,Boyd,USA,38.469941405,-82.634516334,622110,General Medical And Surgical Hospitals,https://chfs.ky.gov/agencies/os/oig/dhc/Documents/Directories/Hospital_Directory.pdf,2018-08-11T00:00:00.000Z,2014-02-10T00:00:00.000Z,http://www.kdmc.com,NA,Non-Profit,455,NA,Y,hospital
540361,Bourbon Community Hospital,9 Linville Drive,Paris,KY,40361,(859) 987-1000,General Acute Care,open,58,Bourbon,USA,38.2211939050001,-84.238352412,622110,General Medical And Surgical Hospitals,https://chfs.ky.gov/agencies/os/oig/dhc/Documents/Directories/Hospital_Directory.pdf,2018-08-11T00:00:00.000Z,2014-03-12T00:00:00.000Z,http://www.bourbonhospital.com,NA,Proprietary,58,NA,Y,hospital
2741042,Gateway Rehabilitation Hospital At Florence,5940 Merchant Street,Florence,KY,41042,(859) 426-2400,Rehabilitation,open,40,Boone,USA,39.008040398,-84.655139219,622110,General Medical And Surgical Hospitals,https://chfs.ky.gov/agencies/os/oig/dhc/Documents/Directories/Hospital_Directory.pdf,2018-08-11T00:00:00.000Z,2013-12-18T00:00:00.000Z,http://www.gatewayflorence.com/,NA,Proprietary,40,NA,N,hospital
9262226,Memorial Hospital,4500 Memorial Drive,Belleville,IL,62226,(618) 233-7750,General Acute Care,open,345,St. Clair,USA,38.549818487,-90.021616557,622110,General Medical And Surgical Hospitals,https://data.illinois.gov/,2018-08-09T00:00:00.000Z,2014-03-12T00:00:00.000Z,http://www.memhosp.com,NA,Non-Profit,345,NA,Y,hospital
7761032,Fhn Memorial Hospital,1045 West Stephenson Street,Freeport,IL,61032,(815) 235-4131,General Acute Care,open,100,Stephenson,USA,42.2957765560001,-89.638345837,622110,General Medical And Surgical Hospitals,https://data.illinois.gov/,2018-08-09T00:00:00.000Z,2014-03-12T00:00:00.000Z,http://www.fhn.org,NA,Non-Profit,100,NA,Y,hospital
173204330,Va Maine Healthcare System Togus,1 Va Center,Augusta,ME,4330,(877) 421-8263,Military,open,NA,Kennebec,USA,44.280462082,-69.70435212,622110,General Medical And Surgical Hospitals,https://www.va.gov/directory/guide/allstate.asp,2018-09-26T00:00:00.000Z,2019-05-09T00:00:00.000Z,https://www.maine.va.gov/,NA,Government - Federal,NA,NA,N,hospital
6061554,Pekin Memorial Hospital,600 South 13th Street,Pekin,IL,61554,(309) 347-1151,General Acute Care,open,125,Tazewell,USA,40.5631286010001,-89.632472849,622110,General Medical And Surgical Hospitals,https://data.illinois.gov/,2018-08-09T00:00:00.000Z,2014-02-10T00:00:00.000Z,http://www.pekinhospital.org,NA,Non-Profit,125,NA,N,hospital
6442071,Murray Calloway County Hospital,803 Poplar Street,Murray,KY,42071,(270) 762-1100,General Acute Care,open,152,Calloway,USA,36.6068889060001,-88.309993904,622110,General Medical And Surgical Hospitals,https://chfs.ky.gov/agencies/os/oig/dhc/Documents/Directories/Hospital_Directory.pdf,2018-08-11T00:00:00.000Z,2014-02-10T00:00:00.000Z,http://www.murrayhospital.org,NA,Government - Local,152,NA,Y,hospital
2240004,Flaget Memorial Hospital,4305 New Shepherdsville Road,Bardstown,KY,40004,(502) 350-5000,General Acute Care,open,40,Nelson,USA,37.861651018,-85.523785834,622110,General Medical And Surgical Hospitals,https://chfs.ky.gov/agencies/os/oig/dhc/Documents/Directories/Hospital_Directory.pdf,2018-08-11T00:00:00.000Z,2014-02-10T00:00:00.000Z,http://www.flaget.com,NA,Non-Profit,40,NA,Y,hospital
6241472,Morgan County Arh Hospital,476 Liberty Road,West Liberty,KY,41472,(606) 743-3186,Critical Access,open,25,Morgan,USA,37.9200331370001,-83.265575509,622110,General Medical And Surgical Hospitals,https://chfs.ky.gov/agencies/os/oig/dhc/Documents/Directories/Hospital_Directory.pdf,2018-08-11T00:00:00.000Z,2014-02-10T00:00:00.000Z,http://www.arh.org,NA,Non-Profit,25,LEVEL IV,Y,hospital
1473103,Curahealth Oklahoma City,1407 North Robinson Avenue,Oklahoma City,OK,73103,(405) 232-8000,General Acute Care,open,93,Oklahoma,USA,35.482805957,-97.5162731299999,622110,General Medical And Surgical Hospitals,https://www.ok.gov/health/Protective_Health/Medical_Facilities_Service/,2018-08-10T00:00:00.000Z,2014-02-05T00:00:00.000Z,http://curahealth.com/our-hospitals/oklahomacity-2/,kindred hospital -oklahoma city,Proprietary,93,NA,N,hospital
8573110,Inspire Specialty Hospital,8210 National Avenue,Midwest City,OK,73110,(405) 739-0800,Long Term Care,open,31,Oklahoma,USA,35.466930286,-97.386829209,622310,Specialty (Except Psychiatric And Substance Abuse) Hospitals,https://www.ok.gov/health/Protective_Health/Medical_Facilities_Service/,2018-08-10T00:00:00.000Z,2014-02-10T00:00:00.000Z,http://www.encore-healthcare.com/specialty_midwest/index.aspx,specialty hospital of midwest city,Proprietary,31,NA,N,hospital
13273096,Weatherford Regional Hospital,3701 East Main Street,Weatherford,OK,73096,(580) 772-5551,Critical Access,open,25,Custer,USA,35.539276865,-98.662301633,622110,General Medical And Surgical Hospitals,https://www.ok.gov/health/Protective_Health/Medical_Facilities_Service/,2018-08-10T00:00:00.000Z,2014-02-06T00:00:00.000Z,http://www.weatherfordhospital.com,NA,Government - District/Authority,25,LEVEL IV,Y,hospital
1974301,Sain Francis Hospital Vinita Inc,735 North Foreman Street,Vinita,OK,74301,(918) 256-7551,General Acute Care,open,51,Craig,USA,36.653408604,-95.15629396,622110,General Medical And Surgical Hospitals,https://www.ok.gov/health/Protective_Health/Medical_Facilities_Service/,2018-08-10T00:00:00.000Z,2014-02-06T00:00:00.000Z,https://www.saintfrancis.com/vinita,craig general hospital,Government - District/Authority,51,LEVEL IV,Y,hospital
3574354,Integris Miami Hospital,200 Second Street Sw,Miami,OK,74354,(918) 542-6611,General Acute Care,open,117,Ottawa,USA,36.8726704740001,-94.8801794089999,622110,General Medical And Surgical Hospitals,https://www.ok.gov/health/Protective_Health/Medical_Facilities_Service/,2018-08-10T00:00:00.000Z,2014-02-10T00:00:00.000Z,http://www.integris-health.com,NA,Non-Profit,117,LEVEL IV,Y,hospital
10574020,Cleveland Area Hospital,1401 West Pawnee Street,Cleveland,OK,74020,(918) 358-2501,Critical Access,open,14,Pawnee,USA,36.3093245210001,-96.4817423599999,622110,General Medical And Surgical Hospitals,https://www.ok.gov/health/Protective_Health/Medical_Facilities_Service/,2018-08-10T00:00:00.000Z,2014-02-05T00:00:00.000Z,http://www.clevelandareahospital.com,NA,Government - District/Authority,14,LEVEL IV,Y,hospital
10874637,Fairfax Community Hospital,40 Hospital Road,Fairfax,OK,74637,(918) 642-3291,Critical Access,open,15,Osage,USA,36.5633206150001,-96.7070340939999,622110,General Medical And Surgical Hospitals,https://www.ok.gov/health/Protective_Health/Medical_Facilities_Service/,2018-08-10T00:00:00.000Z,2014-02-10T00:00:00.000Z,http://www.hmccah.com,NA,Non-Profit,15,LEVEL IV,Y,hospital
10773933,Cimarron Memorial Hospital,100 South Ellis Street,Boise City,OK,73933,(580) 544-2501,Critical Access,open,25,Cimarron,USA,36.728672739,-102.518064766,622110,General Medical And Surgical Hospitals,https://www.ok.gov/health/Protective_Health/Medical_Facilities_Service/,2018-08-10T00:00:00.000Z,2014-02-05T00:00:00.000Z,http://www.cimarronmemorialhospital.org,NA,Government - Local,25,LEVEL IV,N,hospital
14773071,J. D. Mccarty Center For Children With Developmental,2002 East Robinson,Norman,OK,73071,(405) 307-2800,Rehabilitation,open,36,Cleveland,USA,35.2320812040001,-97.4073775849999,622310,"Rehabilitation Hospitals (Except Alcoholism, Drug Addiction)",https://www.ok.gov/health/Protective_Health/Medical_Facilities_Service/,2018-08-10T00:00:00.000Z,2014-02-05T00:00:00.000Z,http://www.jdmc.org,NA,Government - State,36,NA,N,hospital
2557231,Avera De Smet Memorial Hospital,306 Prairie Avenue Southwest,De Smet,SD,57231,(605) 854-3329,Critical Access,open,6,Kingsbury,USA,44.385945802,-97.561297152,622110,General Medical And Surgical Hospitals,https://apps.sd.gov/ph04lassnet/rptPH04LicenseList.Aspx,2018-08-10T00:00:00.000Z,2014-02-10T00:00:00.000Z,http://www.avera.org/,NA,Non-Profit,6,TRH,N,hospital
2757732,Lead-Deadwood Regional Hospital,61 Charles Street,Deadwood,SD,57732,(605) 717-6000,Critical Access,open,18,Lawrence,USA,44.3696269160001,-103.728268406,622110,General Medical And Surgical Hospitals,https://apps.sd.gov/ph04lassnet/rptPH04LicenseList.Aspx,2018-08-10T00:00:00.000Z,2013-12-27T00:00:00.000Z,http://www.regionalhealth.com,NA,Government - State,18,TRH,N,hospital
3957785,Sturgis Regional Hospital,949 Harmon Street,Sturgis,SD,57785,(605) 720-2400,Critical Access,open,25,Meade,USA,44.4022720730001,-103.507025349,622110,General Medical And Surgical Hospitals,https://apps.sd.gov/ph04lassnet/rptPH04LicenseList.Aspx,2018-08-10T00:00:00.000Z,2014-02-10T00:00:00.000Z,http://www.regionalhealth.com/Our-Locations/Regional- Hospitals/Sturgis-Regional-Hospital.aspx,NA,Non-Profit,25,TRH,Y,hospital
15161254,Hammond Henry Hospital,600 N College Avenue,Geneseo,IL,61254,(309) 944-6431,Critical Access,open,61,Henry,USA,41.460314785,-90.157676845,622110,General Medical And Surgical Hospitals,https://data.illinois.gov/,2018-08-09T00:00:00.000Z,2014-03-12T00:00:00.000Z,http://www.hammondhenry.com,NA,Government - District/Authority,61,NA,Y,hospital
17562454,Crawford Memorial Hospital,1000 North Allen Street,Robinson,IL,62454,(618) 546-2514,Critical Access,open,63,Crawford,USA,39.0145414610001,-87.750416765,622110,General Medical And Surgical Hospitals,https://data.illinois.gov/,2018-08-09T00:00:00.000Z,2014-03-12T00:00:00.000Z,http://www.crawfordmh.org,NA,Government - District/Authority,63,NA,Y,hospital
18062278,Red Bud Regional Hospital,325 Spring Street,Red Bud,IL,62278,(618) 282-3831,Critical Access,open,140,Randolph,USA,38.209037213,-89.9968530519999,622110,General Medical And Surgical Hospitals,https://data.illinois.gov/,2018-08-09T00:00:00.000Z,2014-03-12T00:00:00.000Z,http://www.redbudhospital.com,NA,Proprietary,140,NA,Y,hospital
17162568,Taylorville Memorial Hospital,201 East Pleasant Street,Taylorville,IL,62568,(217) 824-3331,Critical Access,open,45,Christian,USA,39.555325371,-89.294259543,622110,General Medical And Surgical Hospitals,https://data.illinois.gov/,2018-08-09T00:00:00.000Z,2014-03-12T00:00:00.000Z,http://www.taylorvillememorial.org,NA,Non-Profit,45,NA,Y,hospital
17762881,Salem Township Hospital,1201 Ricker Drive,Salem,IL,62881,(618) 548-3194,Critical Access,open,22,Marion,USA,38.6414798870001,-88.948550053,622110,General Medical And Surgical Hospitals,https://data.illinois.gov/,2018-08-09T00:00:00.000Z,2014-03-12T00:00:00.000Z,http://www.sthcares.org,NA,Government - Local,22,NA,Y,hospital
899508,Alaska Regional Hospital,2801 Debarr Road,Anchorage,AK,99508,(907) 276-1131,General Acute Care,open,132,Anchorage,USA,61.2107391420001,-149.82898817,622110,General Medical And Surgical Hospitals,http://dhss.alaska.gov/dph/HealthPlanning/Pages/SafetyNetDirectory.aspx,2018-08-09T00:00:00.000Z,2014-02-10T00:00:00.000Z,http://www.alaskaregional.com/,NA,Proprietary,132,NOT DESIGNATED,Y,hospital
1099508,Providence Alaska Medical Center,3200 Providence Drive,Anchorage,AK,99508,(907) 562-2211,General Acute Care,open,371,Anchorage,USA,61.1887628800001,-149.819958703,622110,General Medical And Surgical Hospitals,http://dhss.alaska.gov/dph/HealthPlanning/Pages/SafetyNetDirectory.aspx,2018-08-09T00:00:00.000Z,2014-02-10T00:00:00.000Z,www.providence.org/alaska/default.htm,NA,Non-Profit,371,LEVEL II,Y,hospital
399603,South Peninsula Hospital,4300 Bartlett Street,Homer,AK,99603,(907) 235-8101,Critical Access,open,50,Kenai Peninsula,USA,59.6524701160001,-151.550129834,622110,General Medical And Surgical Hospitals,http://dhss.alaska.gov/dph/HealthPlanning/Pages/SafetyNetDirectory.aspx,2018-08-09T00:00:00.000Z,2014-02-10T00:00:00.000Z,http://www.sphosp.com/,NA,Government - District/Authority,50,LEVEL IV,Y,hospital
1699615,Providence Kodiak Island Medical Center,1915 Rezanof Drive,Kodiak,AK,99615,(907) 486-3281,General Acute Care,open,25,Kodiak Island,USA,57.8008999830001,-152.375607731,622110,General Medical And Surgical Hospitals,http://dhss.alaska.gov/dph/HealthPlanning/Pages/SafetyNetDirectory.aspx,2018-08-09T00:00:00.000Z,2014-02-10T00:00:00.000Z,www.providence.org/alaska/default.htm,NA,Non-Profit,25,LEVEL IV,Y,hospital
1899835,Sitka Community Hospital,209 Moller Avenue,Sitka,AK,99835,(907) 747-3241,General Acute Care,open,27,Sitka,USA,57.0597613310001,-135.346935033,622110,General Medical And Surgical Hospitals,http://dhss.alaska.gov/dph/HealthPlanning/Pages/SafetyNetDirectory.aspx,2018-08-09T00:00:00.000Z,2013-10-28T00:00:00.000Z,www.sitkahospital.org,NA,Government - Local,27,LEVEL IV,N,hospital
2599833,Petersburg Medical Center,103 Fram St.,Petersburg,AK,99833,(907) 772-4291,General Acute Care,open,27,Wrangell-Petersburg,USA,56.8128840750001,-132.955205062,622110,General Medical And Surgical Hospitals,http://dhss.alaska.gov/dph/HealthPlanning/Pages/SafetyNetDirectory.aspx,2018-08-09T00:00:00.000Z,2013-10-28T00:00:00.000Z,http://www.pmc-health.com/,NA,Government - Local,27,LEVEL IV,N,hospital
112208,St. Peter's Hospital,315 S Manning Blvd,Albany,NY,12208,(518) 454-1550,General Acute Care,open,442,Albany,USA,42.6559677230001,-73.803655974,622110,General Medical And Surgical Hospitals,https://profiles.health.ny.gov/hospital/county_or_region/,2018-08-20T00:00:00.000Z,2014-02-10T00:00:00.000Z,http://www.sphcs.org,NA,Non-Profit,442,NA,N,hospital
214727,Cuba Memorial Hospital,140 W Main St,Cuba,NY,14727,(585) 968-2000,Critical Access,open,6,Allegany,USA,42.2129224720001,-78.2878633839999,622110,General Medical And Surgical Hospitals,https://profiles.health.ny.gov/hospital/county_or_region/,2018-08-20T00:00:00.000Z,2014-02-10T00:00:00.000Z,http://www.cubamemorialhospital.com,NA,Non-Profit,6,NA,Y,hospital
5659403,Benefis Health Care (West Campus),500 15th Ave S,Great Falls,MT,59403,(406) 455-5003,General Acute Care,open,85,Cascade,USA,47.488810474,-111.298499867,622110,General Medical And Surgical Hospitals,http://dphhs.mt.gov/qad/healthcarefacilitieslist,2018-08-09T00:00:00.000Z,2014-03-12T00:00:00.000Z,www.benefis.org,NA,Non-Profit,85,NA,Y,hospital
15337110,Saint Thomas River Park Hospital,1559 Sparta Street,Mc Minnville,TN,37110,(931) 815-4101,General Acute Care,open,125,Warren,USA,35.6998444910001,-85.742978922,622110,General Medical And Surgical Hospitals,https://apps.health.tn.gov/FacilityListings,2018-08-10T00:00:00.000Z,2014-02-10T00:00:00.000Z,http://www.sthealth.com/locations/saint-thomas-river-park-hospital,NA,Non-Profit,125,NA,Y,hospital
